Name,Type,Latitude,Longitude,City,Region
Djebel Sidi Abdelkader,Mountain,35.8869008,1.6437141,Chlef,Coastal
Kef Sidi Amar,Mountain,35.8742961,1.6321269,Chlef,Coastal
Djebel Bissa,Mountain,36.4502829,1.4720686,Chlef,Coastal
Djebel Tazaanount,Mountain,36.506323,1.4011725,Chlef,Coastal
Djebel Sidi Merouane,Mountain,36.5432928,1.3695868,Chlef,Coastal
Djebel Tizra,Mountain,36.5336382,1.3711317,Chlef,Coastal
Djebel Bougdour,Mountain,36.3899186,1.3330229,Chlef,Coastal
Djebel Sekine,Mountain,36.3328264,1.3925894,Chlef,Coastal
Koudiet Zeboudj,Mountain,36.2219975,1.8821816,Chlef,Coastal
Djebel Doui,Mountain,36.2256837,1.9606733,Chlef,Coastal
Auberge de Jeunesse,Hotel,36.2632269,1.9551698,Chlef,Coastal
Mechtat Mekerzia,Archaeological Site,36.0310501,1.619346,Chlef,Coastal
Hôtel des Platanes,Hotel,36.185929,1.5253267,Chlef,Coastal
El Kalaa De Sidi Aissa,Archaeological Site,36.2250146,0.8712605,Chlef,Coastal
Place des martyrs,Tourist Attraction,36.2248734,1.6703406,Chlef,Coastal
Bibliothèque Municipale,Library,36.2276804,1.673149,Chlef,Coastal
Chez Miloud,Restaurant,36.1891382,1.5347464,Chlef,Coastal
Restaurant Sodani,Restaurant,36.1886224,1.5339919,Chlef,Coastal
دار الضياف,Restaurant,36.2539051,1.9532717,Chlef,Coastal
Zebbar,Restaurant,35.929414,0.8375471,Chlef,Coastal
Resto,Restaurant,35.9622886,0.9187285,Chlef,Coastal
Abbes,Restaurant,35.9624934,0.9191849,Chlef,Coastal
Fouzi,Restaurant,35.962116,0.9188441,Chlef,Coastal
Resto,Restaurant,35.9548051,0.9013611,Chlef,Coastal
Poulet-Boukarroucha,Restaurant,35.9593769,0.912397,Chlef,Coastal
Bibliothèque municipale,Library,35.9382109,1.5614407,Chlef,Coastal
Resto,Restaurant,35.9628406,0.9199237,Chlef,Coastal
Poulet Yassin,Restaurant,35.962711,0.9196599,Chlef,Coastal
Bibliothèque municipale,Library,35.7492164,1.5471084,Chlef,Coastal
مكتبة البلدية,Library,35.8690127,1.2778294,Chlef,Coastal
Resto,Restaurant,35.895991,0.6937775,Chlef,Coastal
Resto,Restaurant,35.8958106,0.6945638,Chlef,Coastal
Miloud-Benafia,Restaurant,35.9604302,0.9147209,Chlef,Coastal
Bibliothèque municipale,Library,36.1547197,1.818784,Chlef,Coastal
Resto,Restaurant,35.8962135,0.6929443,Chlef,Coastal
Resto,Restaurant,35.8958593,0.6942345,Chlef,Coastal
Tiberkanine,Restaurant,36.1596493,1.6116161,Chlef,Coastal
Resto,Restaurant,36.0711171,1.1412961,Chlef,Coastal
Djebel Hallouda,Mountain,36.2789629,0.8271393,Chlef,Coastal
Djebel Srim,Mountain,36.2774767,0.756676,Chlef,Coastal
Djebel Takelout,Mountain,36.3462088,1.4832242,Chlef,Coastal
Djebel Bou Amoud,Mountain,36.3703657,1.4079266,Chlef,Coastal
Boukhellouf,Mountain,36.546643,1.6865214,Chlef,Coastal
Djebel Amrouna,Mountain,36.4580817,1.3953397,Chlef,Coastal
Amamra dar rih عمامرة دار الريح,Archaeological Site,36.4843785,1.2419755,Chlef,Coastal
Musée historique de la ville de Sidi Ali,Tourist Attraction,36.0994305,0.4212078,Chlef,Coastal
Camping مخيم,Campground,36.2198937,0.4501984,Chlef,Coastal
Hôtel des Arts,Hotel,36.5078678,1.3075741,Chlef,Coastal
المكتبة البلدية,Library,36.0972346,0.4142048,Chlef,Coastal
Resto,Restaurant,36.3991125,0.9127677,Chlef,Coastal
Resto,Restaurant,36.2447282,1.7975197,Chlef,Coastal
Musée d'Ell Moudjahid,Museum,35.7498201,1.5466073,Chlef,Coastal
chanouna,Restaurant,35.9618746,0.9167186,Chlef,Coastal
Resto,Restaurant,35.9641718,0.9149495,Chlef,Coastal
Es-sabil,Restaurant,36.1348631,1.3561519,Chlef,Coastal
sidi merouan,Beach,36.550849,1.3467519,Chlef,Coastal
مقهي إنترنت,Library,35.794533,0.6781878,Chlef,Coastal
Université Restaurant Chlef,Restaurant,36.1656778,1.3385299,Chlef,Coastal
Restaurant Djeloul,Restaurant,36.2228128,1.6731836,Chlef,Coastal
مكتبة الشيخ البوخنوسي,Library,36.1169945,1.5072787,Chlef,Coastal
محلات ياسين,Shopping Mall,36.0685685,1.1239171,Chlef,Coastal
El Blaid (toumiate),Tourist Attraction,35.8603665,0.6069441,Chlef,Coastal
الشتاونية,Tourist Attraction,35.7823738,0.6263675,Chlef,Coastal
Le Bon Coin,Restaurant,35.9299724,0.8303624,Chlef,Coastal
bibliothèque,Library,36.3085912,1.8488195,Chlef,Coastal
Ennadjah Hôtel,Hotel,36.2667778,1.9722408,Chlef,Coastal
La Pataterie chez Ouali,Restaurant,35.7219686,0.7554199,Chlef,Coastal
Motel Kadi,Hotel,36.1644441,0.4406479,Chlef,Coastal
Resto,Restaurant,36.1647408,0.4413043,Chlef,Coastal
Douar El kedadra,Tourist Attraction,35.8091035,0.6575982,Chlef,Coastal
Batistore Aïn Defla,Shopping Mall,36.2640228,1.9624241,Chlef,Coastal
Suidi,Tourist Attraction,35.7540501,0.5759323,Chlef,Coastal
Pâtisserie Benasser,Restaurant,36.2619885,1.9548235,Chlef,Coastal
Resto,Restaurant,35.6482507,0.8635448,Chlef,Coastal
دوار الغمايزية,Campground,35.8496252,0.5734428,Chlef,Coastal
بوخنسوس,Campground,36.27052,1.4157838,Chlef,Coastal
hotel CASTELLUM,Hotel,36.1694852,1.3362916,Chlef,Coastal
مطعم الرحمة,Restaurant,36.2657805,1.970947,Chlef,Coastal
ساحة حسيبة بن بوعلي,Tourist Attraction,36.1664856,1.3394508,Chlef,Coastal
Auberge de jeunesse,Hotel,36.1635012,1.3396728,Chlef,Coastal
Restaurant El Nouare,Restaurant,36.2659637,1.971756,Chlef,Coastal
المجاهد,Museum,35.8688415,2.028381,Chlef,Coastal
Bibliothèque Municipale,Library,35.871068,2.0277704,Chlef,Coastal
Librerie communal,Library,35.9288889,0.8254994,Chlef,Coastal
Île,Tourist Attraction,36.5540656,1.3656316,Chlef,Coastal
Île,Tourist Attraction,36.5540067,1.3601226,Chlef,Coastal
Île,Tourist Attraction,36.4363985,0.9180793,Chlef,Coastal
Île Sidi Brahim,Tourist Attraction,36.5699728,1.8575756,Chlef,Coastal
Kamel chicha,Restaurant,35.9294973,0.8344383,Chlef,Coastal
Mirador,Hotel,36.1670839,1.3409876,Chlef,Coastal
مكتبة البلدية,Library,36.0780305,2.0054679,Chlef,Coastal
السنوسية,Restaurant,36.205634,1.9131463,Chlef,Coastal
Marsa El Cheikh,Beach,36.3297001,0.6811491,Chlef,Coastal
ميمون,Campground,36.1637252,0.4424574,Chlef,Coastal
دار المعلم,Library,35.7179532,0.7580812,Chlef,Coastal
Resto,Restaurant,36.5644066,2.0031142,Chlef,Coastal
Resto,Restaurant,36.5634807,2.0049689,Chlef,Coastal
المكتبة,Library,36.5634477,2.004579,Chlef,Coastal
Resto,Restaurant,36.5644398,2.0029071,Chlef,Coastal
CANON DE TENES,Archaeological Site,36.5221875,1.321173,Chlef,Coastal
عمي يحي,Restaurant,36.1416357,1.5155746,Chlef,Coastal
مطعم,Restaurant,36.1623122,0.9836633,Chlef,Coastal
مطعم,Restaurant,36.1554733,0.9724149,Chlef,Coastal
Restaurant le Grand Bleu,Restaurant,36.4127926,0.9209244,Chlef,Coastal
خربات,Tourist Attraction,36.3308681,0.6920339,Chlef,Coastal
Resto,Restaurant,36.5031118,1.2779992,Chlef,Coastal
Sidi SAID,Mountain,36.1415235,0.7234073,Chlef,Coastal
Resto,Restaurant,35.9638856,0.9238569,Chlef,Coastal
مكتب خدمات السكريتارية و المكتبية,Library,35.9637283,0.918212,Chlef,Coastal
ⵜⴰⵏⵚⵕⴻⵝ,Cliff,36.1400007,0.8047927,Chlef,Coastal
moreceli,Restaurant,36.1457752,0.8381292,Chlef,Coastal
فندق بحري,Hotel,36.2249099,1.6710336,Chlef,Coastal
Resto,Restaurant,36.2258007,1.6779316,Chlef,Coastal
Benmousa Mohamed,Hotel,36.1126697,0.789066,Chlef,Coastal
kaloul,Hotel,36.4236456,1.23926,Chlef,Coastal
AIMEUR KARIM,Hotel,36.2189895,1.4766398,Chlef,Coastal
Centre de repos,Campground,36.4553049,0.9772025,Chlef,Coastal
CAMPING CENTRE DE REPOS,Campground,36.4537376,0.9729271,Chlef,Coastal
CAMPING CENTRE DE REPOS,Campground,36.3799076,0.8851035,Chlef,Coastal
Camps de toile ELMARSA (FOSC - SONELGAZ) مخيم المرسى فوسك سونلغاز,Campground,36.3801656,0.8873418,Chlef,Coastal
CAMPING CENTRE DE REPOS,Campground,36.4721283,1.0357766,Chlef,Coastal
Camp de vacances des Oulemas Musulmans Algériens,Campground,36.4777678,1.0436814,Chlef,Coastal
Camping Centre de repos,Campground,36.5059259,1.2221968,Chlef,Coastal
amamra abdelrahman عمامرة عبد الرحمان,Archaeological Site,36.4734936,1.2500918,Chlef,Coastal
Camping مخيم,Campground,36.3141266,0.6448607,Chlef,Coastal
Comping,Campground,36.312925,0.6436497,Chlef,Coastal
المخيم الصيفي للبريد,Campground,36.5026646,1.249527,Chlef,Coastal
الشاف التونسي,Restaurant,36.2525654,1.9446299,Chlef,Coastal
مطعم فيصل للسمك,Restaurant,36.517698,1.3171575,Chlef,Coastal
Plage gounini,Campground,36.567982,2.02034,Chlef,Coastal
مركز الراحة العائلي للجيش,Campground,36.2286408,0.4694211,Chlef,Coastal
Resto,Restaurant,36.5534068,1.7890522,Chlef,Coastal
مطعم السلام,Restaurant,35.8889174,1.6198001,Chlef,Coastal
عين العزلة,Tourist Attraction,36.2206095,0.9549582,Chlef,Coastal
chouieur food & helado,Restaurant,36.1624897,1.3303672,Chlef,Coastal
أولاد عدة,Tourist Attraction,36.1900309,0.9302819,Chlef,Coastal
السهايلية,Tourist Attraction,36.1674177,0.9258083,Chlef,Coastal
سخاريف,Tourist Attraction,36.1017066,0.9483852,Chlef,Coastal
أولاد عين الناس,Tourist Attraction,36.1570842,0.9428761,Chlef,Coastal
البيايض,Tourist Attraction,36.1750361,1.0104464,Chlef,Coastal
Traghnia Cascades شلال تراغنية بالتنس,Tourist Attraction,36.5331848,1.4001228,Chlef,Coastal
شاطئ س .تراغنية,Campground,36.5373515,1.4167656,Chlef,Coastal
Hotel,Hotel,36.0522325,1.1234787,Chlef,Coastal
Palomino - By Chouieur,Restaurant,36.1547866,1.3257934,Chlef,Coastal
La Boussole,Restaurant,36.165442,1.339112,Chlef,Coastal
مكتبة سفيان مزيان,Library,36.3197158,0.6707831,Chlef,Coastal
فندق السلام,Hotel,36.2587374,1.9574304,Chlef,Coastal
Hotel les Orangers,Hotel,36.1655657,1.3426748,Chlef,Coastal
مطعم المصالحة,Restaurant,36.1347727,1.3558982,Chlef,Coastal
PLAGE KASTINI,Beach,36.5687468,1.8635996,Chlef,Coastal
PLAGE HAWERT LEBEHARE,Beach,36.5681448,1.8733229,Chlef,Coastal
PLAGE TURIG,Beach,36.5639663,1.8307746,Chlef,Coastal
S SEMAIL,Park,36.5660337,1.8448017,Chlef,Coastal
AZERO ABOO,Park,36.5673561,1.8457491,Chlef,Coastal
MEHAMED ELHADJE,Park,36.5699805,1.8531989,Chlef,Coastal
Boumead school مدرسة بومعد,Archaeological Site,36.3648277,2.1272211,Chlef,Coastal
Boumead school مدرسة بومعد,Archaeological Site,36.3652079,2.1277159,Chlef,Coastal
Boumead school مدرسة بومعد,Archaeological Site,36.3653083,2.1276529,Chlef,Coastal
Taouret prison سجن تاوريت,Archaeological Site,36.3647143,2.125538,Chlef,Coastal
Comp de jeune Damous,Hotel,36.5533915,1.7369928,Chlef,Coastal
شاطيء فوضيل الشريف,Beach,36.5596916,1.7972209,Chlef,Coastal
La forêt noire,Forest,36.5580498,1.7485435,Chlef,Coastal
Plage larhat,Beach,36.5574045,1.7863172,Chlef,Coastal
شاطئ المرسى,Beach,36.5600365,1.8007117,Chlef,Coastal
Restaurant ikhlifaine - مطعم إخليفاين,Restaurant,36.5548957,1.7688421,Chlef,Coastal
Plage Ma3youche - شاطئ معيوش,Beach,36.5582298,1.7677956,Chlef,Coastal
kharouba plage,Beach,36.5574762,1.7799231,Chlef,Coastal
Plage zahra.y,Beach,36.5588724,1.7909869,Chlef,Coastal
مكتبة البلدية,Library,36.5556548,1.8034087,Chlef,Coastal
Gunugu Beach,Beach,36.5663915,1.9772979,Chlef,Coastal
AQUA Number one,Restaurant,36.1633909,1.318734,Chlef,Coastal
Grand hôtel,Hotel,36.1648055,1.3386792,Chlef,Coastal
Kef Siga,Mountain,35.8771267,1.9321675,Chlef,Coastal
Ras El Braret,Mountain,35.8626423,1.9493551,Chlef,Coastal
Savannah Ain Defla,Restaurant,36.2617184,1.9610893,Chlef,Coastal
montagne zawikya,Mountain,36.1566365,0.7617367,Chlef,Coastal
HISTORIA,Restaurant,36.2574534,1.9592686,Chlef,Coastal
O'Seven,Restaurant,36.2576936,1.9593117,Chlef,Coastal
Hotel El Boustane,Hotel,33.8021944,2.8582199,Laghouat,High Plateaus
Hôtel Marhaba,Hotel,33.8084307,2.8831491,Laghouat,High Plateaus
Restaurant les Trois Frères,Restaurant,33.7947651,2.8630423,Laghouat,High Plateaus
Restaurant Benzoubir,Restaurant,33.7102498,2.919206,Laghouat,High Plateaus
فندق سيشال,Hotel,33.8027706,2.8586391,Laghouat,High Plateaus
Resto,Restaurant,33.8894271,2.8668889,Laghouat,High Plateaus
Sidi Makhlouf,Restaurant,34.1298852,3.0125356,Laghouat,High Plateaus
Bibliothéque centrale,Library,33.8001162,2.8507445,Laghouat,High Plateaus
kool kool,Restaurant,33.7939498,2.8489907,Laghouat,High Plateaus
Pizzéria Viva,Restaurant,33.8010355,2.8562478,Laghouat,High Plateaus
Resto,Restaurant,33.8006496,2.8559446,Laghouat,High Plateaus
Resto,Restaurant,33.8004351,2.8557494,Laghouat,High Plateaus
Mon ami,Restaurant,33.800099,2.8563613,Laghouat,High Plateaus
مطعم الناقة,Restaurant,33.7926976,2.8913538,Laghouat,High Plateaus
Djebel Bouskaren,Mountain,33.8011935,2.8777193,Laghouat,High Plateaus
Bibliothèque Faculté Medecine,Library,33.7969149,2.8467471,Laghouat,High Plateaus
Merikka,Tourist Attraction,33.8550748,2.8655067,Laghouat,High Plateaus
نصب تذكاري خَيل فانتازيا,Tourist Attraction,33.8811449,2.5279502,Laghouat,High Plateaus
باراج واد مزي,Tourist Attraction,33.9017136,2.4740474,Laghouat,High Plateaus
Resto,Restaurant,33.7894026,2.8605329,Laghouat,High Plateaus
باب القصر,Tourist Attraction,33.7893525,3.1459793,Laghouat,High Plateaus
Resto,Restaurant,34.4603878,2.5287545,Laghouat,High Plateaus
Marfouâa,Restaurant,33.7980596,2.8666218,Laghouat,High Plateaus
Brothers,Restaurant,33.7970194,2.859231,Laghouat,High Plateaus
Boutique de Laghouat TGV,Library,33.8141478,2.8729286,Laghouat,High Plateaus
Boutique De Laghouat,Library,33.8142862,2.8727954,Laghouat,High Plateaus
مكتبة عمومية,Library,34.1313026,3.0156332,Laghouat,High Plateaus
Prince,Restaurant,33.8013961,2.8896976,Laghouat,High Plateaus
دارالشباب قصر الحيران ب ع,Hotel,33.7883731,3.1447615,Laghouat,High Plateaus
Resto,Restaurant,34.4513737,2.5293294,Laghouat,High Plateaus
Resto,Restaurant,34.451199,2.5293603,Laghouat,High Plateaus
Resto,Restaurant,34.4518847,2.5299088,Laghouat,High Plateaus
Resto,Restaurant,34.4517431,2.5297935,Laghouat,High Plateaus
بلدية الدويس,Tourist Attraction,34.3719468,2.7025514,Laghouat,High Plateaus
Resto,Restaurant,34.3643727,2.6987324,Laghouat,High Plateaus
مطعم الصحراوي,Restaurant,34.3644597,2.6985109,Laghouat,High Plateaus
مكتبة شيبوطي,Library,33.7993622,2.3010043,Laghouat,High Plateaus
Resto,Restaurant,33.7965399,2.8592213,Laghouat,High Plateaus
خيمة دار جدودي,Restaurant,33.7922971,2.8461033,Laghouat,High Plateaus
MB Food,Restaurant,33.7922061,2.8460045,Laghouat,High Plateaus
La Strada,Restaurant,33.7925962,2.8463887,Laghouat,High Plateaus
مطعم,Restaurant,33.7929143,2.8466669,Laghouat,High Plateaus
القعدة,Campground,33.9598535,2.1351232,Laghouat,High Plateaus
الإقامة الجامعية 3000 سرير,Hotel,33.7900732,2.8454044,Laghouat,High Plateaus
فندق رانيا,Hotel,33.8135919,2.8718895,Laghouat,High Plateaus
Resto,Restaurant,33.7668278,2.8832218,Laghouat,High Plateaus
Kef El Melh,Mountain,33.6473567,1.8642355,Laghouat,High Plateaus
تقرسان,Tourist Attraction,34.4004762,2.9031245,Laghouat,High Plateaus
دجاج على الفحم,Restaurant,33.7874161,2.8464039,Laghouat,High Plateaus
مكتبة. فليكسي. كوسمتيك. نسخ المفاتيح,Library,33.7863942,3.1303177,Laghouat,High Plateaus
دار عمي الصالح,Campground,33.5051865,2.1002905,Laghouat,High Plateaus
مڨاطع,Hotel,33.8131546,2.873867,Laghouat,High Plateaus
مركب رياضي جواري,Hotel,33.7950402,2.8813199,Laghouat,High Plateaus
La Chamelle des repas traditionnels.,Restaurant,33.8012149,2.8573436,Laghouat,High Plateaus
Hôtel Riad El Sotane,Hotel,33.8099034,2.8854332,Laghouat,High Plateaus
سد فيض الكلبة,Park,33.2833008,3.004432,Laghouat,High Plateaus
Pizzeria Okba,Restaurant,33.7953747,2.8666763,Laghouat,High Plateaus
تخييم,Campground,33.4834647,2.6197448,Laghouat,High Plateaus
Rass el Ouenn kel,Mountain,36.232573,7.605953,Oum El Bouaghi,High Plateaus
Djebel Chetaba,Mountain,36.317336,6.4442481,Oum El Bouaghi,High Plateaus
Djebel El Ouahch,Mountain,36.3948286,6.7957316,Oum El Bouaghi,High Plateaus
Djebel Toukouia,Mountain,36.1558762,6.2761298,Oum El Bouaghi,High Plateaus
Djebel Maziout,Mountain,36.0995836,6.2781897,Oum El Bouaghi,High Plateaus
Djebel Chélia,Mountain,35.3184223,6.6367376,Oum El Bouaghi,High Plateaus
Ruines romaines,Archaeological Site,36.3953563,7.2626835,Oum El Bouaghi,High Plateaus
Djebel Zouabi,Mountain,36.1036009,7.4509536,Oum El Bouaghi,High Plateaus
Ruines romaines de Khemissa,Archaeological Site,36.1934233,7.6566039,Oum El Bouaghi,High Plateaus
Sidi Rghiss,Mountain,35.9078233,7.1326703,Oum El Bouaghi,High Plateaus
Ksar El Kahina,Archaeological Site,35.535855,7.1191274,Oum El Bouaghi,High Plateaus
Djebel Kmiti,Mountain,35.2449872,7.4003587,Oum El Bouaghi,High Plateaus
Djebel Tadelist,Mountain,35.2853453,7.3168274,Oum El Bouaghi,High Plateaus
Djebel Djahfa,Mountain,35.3142059,7.0660302,Oum El Bouaghi,High Plateaus
Djebel Teioualet,Mountain,36.0627074,6.395065,Oum El Bouaghi,High Plateaus
Hôtel El Bey,Hotel,36.2892815,6.617429,Oum El Bouaghi,High Plateaus
La Pineraie,Restaurant,36.2536442,6.6105143,Oum El Bouaghi,High Plateaus
Tombeau de Massinissa,Tourist Attraction,36.2721943,6.725097,Oum El Bouaghi,High Plateaus
Bibliothéque,Library,36.4456216,6.6480481,Oum El Bouaghi,High Plateaus
Hammam Essalihine,Archaeological Site,35.4401595,7.0846943,Oum El Bouaghi,High Plateaus
Djebel Fertas,Mountain,36.0551101,6.7102212,Oum El Bouaghi,High Plateaus
Djebel Guerioun,Mountain,36.0114061,6.6870238,Oum El Bouaghi,High Plateaus
Praetorium,Archaeological Site,35.4901164,6.254729,Oum El Bouaghi,High Plateaus
مطعم و مقهى أيوب,Restaurant,36.020064,6.5718469,Oum El Bouaghi,High Plateaus
Bibliothèque municipale,Library,36.3908111,6.607099,Oum El Bouaghi,High Plateaus
Maouna,Mountain,36.3785975,7.3792817,Oum El Bouaghi,High Plateaus
Il gusto,Restaurant,36.3499985,6.5999999,Oum El Bouaghi,High Plateaus
Gondol,Restaurant,36.3539391,6.6059651,Oum El Bouaghi,High Plateaus
نصب شهداء الثورة,Tourist Attraction,35.8688809,7.1121189,Oum El Bouaghi,High Plateaus
Djebel Nif Ennasr,Mountain,35.9582249,6.4913847,Oum El Bouaghi,High Plateaus
Hôtel militaire,Hotel,36.3527944,6.6110986,Oum El Bouaghi,High Plateaus
Djebel Bouarif,Mountain,35.613507,6.4385881,Oum El Bouaghi,High Plateaus
houssine2,Restaurant,36.3447926,6.6050094,Oum El Bouaghi,High Plateaus
Restaurant erriadi,Restaurant,36.3467426,6.6054525,Oum El Bouaghi,High Plateaus
مطعم أحمد,Restaurant,35.7973921,7.3887373,Oum El Bouaghi,High Plateaus
الجمبري الذهبي,Restaurant,35.7974103,7.3886838,Oum El Bouaghi,High Plateaus
مطعم بولعراس,Restaurant,35.7973263,7.3889099,Oum El Bouaghi,High Plateaus
المطعم السوري,Restaurant,35.7969277,7.3871245,Oum El Bouaghi,High Plateaus
ALIOUA,Restaurant,35.7799536,6.4169417,Oum El Bouaghi,High Plateaus
Martyre Colonel Mohamed Amouri,Tourist Attraction,35.7751296,6.4121118,Oum El Bouaghi,High Plateaus
Fontaine de Ain Yagout Thagouth,Archaeological Site,35.7743766,6.4195871,Oum El Bouaghi,High Plateaus
مطعم صحراوي,Restaurant,35.2981724,7.3497819,Oum El Bouaghi,High Plateaus
مطعم سعودي,Restaurant,35.2988509,7.3489152,Oum El Bouaghi,High Plateaus
Doubara,Restaurant,35.7765855,6.4140463,Oum El Bouaghi,High Plateaus
Resto,Restaurant,35.7752669,6.4123557,Oum El Bouaghi,High Plateaus
Ruines,Archaeological Site,35.9735934,7.612083,Oum El Bouaghi,High Plateaus
Resto,Restaurant,36.1569423,7.140912,Oum El Bouaghi,High Plateaus
الحاج نينو,Restaurant,36.1568243,7.1409643,Oum El Bouaghi,High Plateaus
Resto,Restaurant,36.1559538,7.1415343,Oum El Bouaghi,High Plateaus
Resto,Restaurant,36.1576071,7.1406492,Oum El Bouaghi,High Plateaus
Resto,Restaurant,36.1573527,7.1407377,Oum El Bouaghi,High Plateaus
Resto,Restaurant,36.157658,7.1406237,Oum El Bouaghi,High Plateaus
عند عياشي,Restaurant,36.1584449,7.140756,Oum El Bouaghi,High Plateaus
Resto,Restaurant,36.0171559,6.5717633,Oum El Bouaghi,High Plateaus
Hôtel Hammam Essalhine PTT,Hotel,35.4434308,7.0828249,Oum El Bouaghi,High Plateaus
hotel hamam salhin,Hotel,35.4408064,7.0844503,Oum El Bouaghi,High Plateaus
فندق موناتيك,Hotel,35.4418837,7.0854561,Oum El Bouaghi,High Plateaus
Djebel El-Hamouri,Mountain,36.0736704,7.2116505,Oum El Bouaghi,High Plateaus
MEHARZI,Restaurant,36.4200332,6.6100017,Oum El Bouaghi,High Plateaus
BRIHMAT,Restaurant,36.4189153,6.6104893,Oum El Bouaghi,High Plateaus
نزل الحراكته,Hotel,35.7957945,7.3945995,Oum El Bouaghi,High Plateaus
Resto,Restaurant,36.4449764,6.6382957,Oum El Bouaghi,High Plateaus
مطعم,Restaurant,35.5207579,6.378932,Oum El Bouaghi,High Plateaus
bibliothèque anajah,Library,36.4472666,7.4201723,Oum El Bouaghi,High Plateaus
matico,Stadium,36.4467743,7.4232104,Oum El Bouaghi,High Plateaus
Restaurant RUAM,Restaurant,36.2435569,6.5646535,Oum El Bouaghi,High Plateaus
Resto,Restaurant,36.352036,6.6256054,Oum El Bouaghi,High Plateaus
PizzaExpress,Restaurant,36.3672285,6.6444089,Oum El Bouaghi,High Plateaus
Resto,Restaurant,36.3483258,6.6419926,Oum El Bouaghi,High Plateaus
Resto,Restaurant,36.3482998,6.6420248,Oum El Bouaghi,High Plateaus
Pizza Hut,Restaurant,36.3481108,6.6421978,Oum El Bouaghi,High Plateaus
Resto,Restaurant,36.3485018,6.6409238,Oum El Bouaghi,High Plateaus
نزل,Hotel,35.7940237,7.3904048,Oum El Bouaghi,High Plateaus
Bibliothèque municipale,Library,36.263213,7.074016,Oum El Bouaghi,High Plateaus
فندق السندباد,Hotel,35.8710614,7.1092508,Oum El Bouaghi,High Plateaus
Hôtel Mosbah Kamel,Hotel,36.0321506,6.5733113,Oum El Bouaghi,High Plateaus
Bibliothèque Municipale,Library,35.4427967,7.4678791,Oum El Bouaghi,High Plateaus
مطعم بوخميس,Restaurant,35.2961942,7.3522224,Oum El Bouaghi,High Plateaus
Resto,Restaurant,35.2976488,7.3501376,Oum El Bouaghi,High Plateaus
jbel Khezouz,Mountain,35.3139451,6.4226315,Oum El Bouaghi,High Plateaus
La banquise,Restaurant,36.3319344,6.5837743,Oum El Bouaghi,High Plateaus
Kerroud,Restaurant,36.338625,6.5842167,Oum El Bouaghi,High Plateaus
Restaurant belhazzar,Restaurant,36.3174763,7.1672891,Oum El Bouaghi,High Plateaus
فندق سيدي ابراهيم,Hotel,35.8013225,7.3730989,Oum El Bouaghi,High Plateaus
bibliothèque,Library,36.2679652,6.5008478,Oum El Bouaghi,High Plateaus
مطعم الخيمة,Restaurant,36.1298598,7.5335986,Oum El Bouaghi,High Plateaus
فندق,Hotel,36.1234759,7.5327695,Oum El Bouaghi,High Plateaus
مطعم,Restaurant,36.1310573,7.5334661,Oum El Bouaghi,High Plateaus
فندق المائدة,Hotel,36.1214575,7.5318985,Oum El Bouaghi,High Plateaus
Pizzéria,Restaurant,36.1337698,7.5350065,Oum El Bouaghi,High Plateaus
دار الشباب,Library,36.1362866,7.5335437,Oum El Bouaghi,High Plateaus
Jbel el Kanouf,Mountain,35.1663405,6.8713208,Oum El Bouaghi,High Plateaus
Koudiet Djimount,Mountain,35.1788604,6.9063473,Oum El Bouaghi,High Plateaus
مسعي يسين,Hotel,35.3025046,7.3473782,Oum El Bouaghi,High Plateaus
Hôtel Fesdis,Hotel,35.6172442,6.2471679,Oum El Bouaghi,High Plateaus
تيزي انيدقل,Tourist Attraction,35.29682,6.6412216,Oum El Bouaghi,High Plateaus
Chicken House,Restaurant,36.2578092,6.5880732,Oum El Bouaghi,High Plateaus
Resto,Restaurant,36.3705846,7.5300879,Oum El Bouaghi,High Plateaus
دار الشباب,Hotel,36.3688347,7.5267714,Oum El Bouaghi,High Plateaus
Resto,Restaurant,36.3701627,7.5275179,Oum El Bouaghi,High Plateaus
ملعب البلدية,Stadium,36.3732126,7.5332022,Oum El Bouaghi,High Plateaus
Restaurant DarDiaf,Restaurant,36.3576469,6.6043873,Oum El Bouaghi,High Plateaus
ملعب السعيد حقاص,Stadium,35.4596863,7.0896263,Oum El Bouaghi,High Plateaus
Resto,Restaurant,35.494506,6.9250104,Oum El Bouaghi,High Plateaus
Hotel Des Princes,Hotel,36.3612707,6.6075071,Oum El Bouaghi,High Plateaus
فندق غراند,Hotel,36.3658229,6.6108529,Oum El Bouaghi,High Plateaus
فندق بن مهيدي,Hotel,36.3659449,6.6109102,Oum El Bouaghi,High Plateaus
كمال كسرة الشحمة,Restaurant,35.7925888,7.3812914,Oum El Bouaghi,High Plateaus
مطعم بغداد,Restaurant,36.2609785,6.6905279,Oum El Bouaghi,High Plateaus
زعيم الشام,Restaurant,36.2677903,6.6907521,Oum El Bouaghi,High Plateaus
Resto,Restaurant,36.2619916,6.6911959,Oum El Bouaghi,High Plateaus
الرايس,Restaurant,36.2619119,6.6917354,Oum El Bouaghi,High Plateaus
Resto,Restaurant,36.2619063,6.6912035,Oum El Bouaghi,High Plateaus
Resto,Restaurant,36.2624963,6.6910625,Oum El Bouaghi,High Plateaus
Resto,Restaurant,36.2628716,6.6910969,Oum El Bouaghi,High Plateaus
Resto,Restaurant,36.2616074,6.6914385,Oum El Bouaghi,High Plateaus
مكتبة الخروب,Library,36.2569928,6.6968823,Oum El Bouaghi,High Plateaus
ZAZA FOOD,Restaurant,35.8717135,7.1060672,Oum El Bouaghi,High Plateaus
مطعم و مسبح بولفخاد,Restaurant,36.2858763,6.518115,Oum El Bouaghi,High Plateaus
Le Grand Bleu,Restaurant,36.2591632,6.5867757,Oum El Bouaghi,High Plateaus
Hotel Emir,Hotel,36.3526752,6.6188674,Oum El Bouaghi,High Plateaus
Hotel El Kheir,Hotel,36.3518965,6.6256427,Oum El Bouaghi,High Plateaus
هشام,Tourist Attraction,36.3098928,6.6024961,Oum El Bouaghi,High Plateaus
مطعم علي بابا,Restaurant,36.0202743,6.5718838,Oum El Bouaghi,High Plateaus
حي المجاهد المتوفي ملول مسعود,Hotel,36.26214,6.4924751,Oum El Bouaghi,High Plateaus
Café La Montagne,Restaurant,36.3912283,6.6443404,Oum El Bouaghi,High Plateaus
عمي المنور,Restaurant,35.4318994,7.1473253,Oum El Bouaghi,High Plateaus
piano piano,Restaurant,36.3656954,6.6369354,Oum El Bouaghi,High Plateaus
Salle de lecture,Library,35.6769057,6.4826232,Oum El Bouaghi,High Plateaus
بيت الشباب الشمرة,Hotel,35.665624,6.6423212,Oum El Bouaghi,High Plateaus
دوار سدايرية,Hotel,36.3152184,7.5504926,Oum El Bouaghi,High Plateaus
الحي البلدي,Library,36.0379396,6.5690866,Oum El Bouaghi,High Plateaus
Les platanes,Restaurant,36.3517851,6.6127106,Oum El Bouaghi,High Plateaus
مكتبة رابحي,Library,35.2936703,7.3570041,Oum El Bouaghi,High Plateaus
الهرم,Tourist Attraction,36.3603678,6.6064707,Oum El Bouaghi,High Plateaus
مطعم سلطان الشام,Restaurant,35.8716032,7.0954602,Oum El Bouaghi,High Plateaus
Mont Sidi Ali Barda,Mountain,35.2210378,6.5430447,Oum El Bouaghi,High Plateaus
متحف مجمع المجاهد,Museum,36.114321,6.3545205,Oum El Bouaghi,High Plateaus
دار باديس,Hotel,35.629237,6.3797563,Oum El Bouaghi,High Plateaus
Resto,Restaurant,36.3615562,6.6436889,Oum El Bouaghi,High Plateaus
منزل محمد العيد الاشراف,Hotel,36.3733707,6.6263687,Oum El Bouaghi,High Plateaus
Benbelkacem dom.,Hotel,36.2637137,6.4826978,Oum El Bouaghi,High Plateaus
عبد الحق,Restaurant,36.3128195,6.6248151,Oum El Bouaghi,High Plateaus
فندق الرفيع,Hotel,36.2594671,6.5872489,Oum El Bouaghi,High Plateaus
مكتبة المنار,Library,35.8669457,7.8869255,Oum El Bouaghi,High Plateaus
Coloc bâtiment 1er,Restaurant,36.3485104,6.6001916,Oum El Bouaghi,High Plateaus
Pizzeria Roma,Restaurant,36.251162,6.5737763,Oum El Bouaghi,High Plateaus
Pizzeria Roma,Restaurant,36.2511356,6.5736899,Oum El Bouaghi,High Plateaus
Pizzeria Roma,Restaurant,36.2511092,6.5736338,Oum El Bouaghi,High Plateaus
Resto,Restaurant,36.2510923,6.5735754,Oum El Bouaghi,High Plateaus
Resto,Restaurant,36.2513434,6.5738155,Oum El Bouaghi,High Plateaus
المكتبة الرئيسية للمطالعة العمومية لولاية قسنطينة,Library,36.3430161,6.6061828,Oum El Bouaghi,High Plateaus
الخربة,Archaeological Site,36.1726403,6.3451472,Oum El Bouaghi,High Plateaus
الملعب البلدي,Stadium,36.1862377,6.3917605,Oum El Bouaghi,High Plateaus
Matico,Stadium,36.1191624,6.3541675,Oum El Bouaghi,High Plateaus
الهنشير,Archaeological Site,36.1478311,6.3565551,Oum El Bouaghi,High Plateaus
Djebel El Meguitla,Mountain,36.149209,6.3349385,Oum El Bouaghi,High Plateaus
Djebel Felten,Mountain,36.1841047,6.418483,Oum El Bouaghi,High Plateaus
Djebel- Boudjemlin,Mountain,36.2070873,6.3381874,Oum El Bouaghi,High Plateaus
Ezzouaghia,Mountain,36.1818203,6.354947,Oum El Bouaghi,High Plateaus
Ras Beghal,Mountain,36.1745977,6.371169,Oum El Bouaghi,High Plateaus
Oum Ethealbet,Mountain,36.1718263,6.3222348,Oum El Bouaghi,High Plateaus
El-Mesdour,Mountain,36.1866089,6.3242518,Oum El Bouaghi,High Plateaus
Aqueduc Romain,Archaeological Site,36.3501957,6.6175773,Oum El Bouaghi,High Plateaus
نزل طارق ابن زياد,Hotel,35.4330823,7.1441741,Oum El Bouaghi,High Plateaus
Resto,Restaurant,35.43077,7.1485857,Oum El Bouaghi,High Plateaus
Resto,Restaurant,35.4308389,7.1482592,Oum El Bouaghi,High Plateaus
Resto,Restaurant,35.4309125,7.1481349,Oum El Bouaghi,High Plateaus
نزل الكاهنة,Hotel,35.4330013,7.1446942,Oum El Bouaghi,High Plateaus
Resto,Restaurant,35.4310911,7.1480926,Oum El Bouaghi,High Plateaus
مطعم بوعطيل,Restaurant,35.4306823,7.1470202,Oum El Bouaghi,High Plateaus
Resto,Restaurant,35.4311686,7.1479608,Oum El Bouaghi,High Plateaus
Resto,Restaurant,35.4308517,7.1472001,Oum El Bouaghi,High Plateaus
بيغ بيتزا,Restaurant,36.3633163,6.6374876,Oum El Bouaghi,High Plateaus
ماجك رستورنت,Restaurant,36.3319243,6.583771,Oum El Bouaghi,High Plateaus
Market of Sertius,Archaeological Site,35.4846177,6.4667722,Oum El Bouaghi,High Plateaus
Albergue de Jeunesse Timgad,Hotel,35.4908011,6.4677897,Oum El Bouaghi,High Plateaus
نزل الكاهنة - Hôtel Elkahina,Hotel,35.4901541,6.4677139,Oum El Bouaghi,High Plateaus
Arc de Trajan,Archaeological Site,35.4850379,6.4671671,Oum El Bouaghi,High Plateaus
Triumphal arch,Archaeological Site,35.4864562,6.4639555,Oum El Bouaghi,High Plateaus
Capitolium,Archaeological Site,35.4834949,6.4666444,Oum El Bouaghi,High Plateaus
لارباع,Restaurant,35.3918801,6.3148869,Oum El Bouaghi,High Plateaus
تمثال سيدة السلام,Tourist Attraction,36.3804828,6.6184774,Oum El Bouaghi,High Plateaus
محلات الرئيس POSTE SUD,Shopping Mall,36.4441611,7.4309057,Oum El Bouaghi,High Plateaus
المعالج,Hotel,36.3279831,6.6637328,Oum El Bouaghi,High Plateaus
Tiddis,Restaurant,36.3630257,6.6085514,Oum El Bouaghi,High Plateaus
فندق الياسمين,Hotel,35.5838551,6.1980533,Oum El Bouaghi,High Plateaus
طبخ سوري,Restaurant,36.257562,6.7037365,Oum El Bouaghi,High Plateaus
Monement,Tourist Attraction,36.3751876,6.6136073,Oum El Bouaghi,High Plateaus
Pont lhballe,Tourist Attraction,36.3730219,6.6150686,Oum El Bouaghi,High Plateaus
Ritaj Mall,Tourist Attraction,36.2510347,6.5726897,Oum El Bouaghi,High Plateaus
قاعة حفلات الزفاف طبنة,Tourist Attraction,35.582181,6.1944315,Oum El Bouaghi,High Plateaus
مكتبة البصرة,Library,35.9695549,6.8708917,Oum El Bouaghi,High Plateaus
قاعة المنارة الحفلات,Tourist Attraction,36.3054158,6.6787334,Oum El Bouaghi,High Plateaus
Resto,Restaurant,35.4887521,6.4687434,Oum El Bouaghi,High Plateaus
اقامة جامعية علي منجلي 3,Hotel,36.2422963,6.5625273,Oum El Bouaghi,High Plateaus
دوبارة بسكرية,Restaurant,35.4949722,6.9245155,Oum El Bouaghi,High Plateaus
Hotel El Mountazeh,Hotel,36.2639727,6.6911222,Oum El Bouaghi,High Plateaus
قمة جبل كلتوم سيدي علي,Campground,35.2201397,6.5417641,Oum El Bouaghi,High Plateaus
باطيمات سيدي علي كيمل,Hotel,35.2175751,6.5426273,Oum El Bouaghi,High Plateaus
Sale du fétt,Hotel,36.0330336,6.5836111,Oum El Bouaghi,High Plateaus
Arena,Restaurant,36.2835642,6.5912108,Oum El Bouaghi,High Plateaus
منزل النوار شبيلي,Tourist Attraction,35.916256,7.3736124,Oum El Bouaghi,High Plateaus
Djebel Guellif,Mountain,35.8294425,6.987489,Oum El Bouaghi,High Plateaus
Resto,Restaurant,36.3076062,6.6270491,Oum El Bouaghi,High Plateaus
Resto,Restaurant,36.1610292,7.1392289,Oum El Bouaghi,High Plateaus
مطعم الداوي,Restaurant,35.5212687,7.1148785,Oum El Bouaghi,High Plateaus
مطعم الحوت,Restaurant,36.3564758,6.6514741,Oum El Bouaghi,High Plateaus
Resto,Restaurant,35.6164035,6.2454776,Oum El Bouaghi,High Plateaus
Resto,Restaurant,35.6045373,6.2251514,Oum El Bouaghi,High Plateaus
Resto,Restaurant,35.6168586,6.2456039,Oum El Bouaghi,High Plateaus
Theatre,Archaeological Site,35.4841709,6.4688551,Oum El Bouaghi,High Plateaus
Forum,Archaeological Site,35.4848096,6.4688325,Oum El Bouaghi,High Plateaus
آثار,Tourist Attraction,35.316461,7.2293272,Oum El Bouaghi,High Plateaus
Djalal,Restaurant,36.0296818,6.5805074,Oum El Bouaghi,High Plateaus
Bagoya,Restaurant,36.3698549,6.6150934,Oum El Bouaghi,High Plateaus
آثار قسنطينة,Hotel,36.37518,6.6138758,Oum El Bouaghi,High Plateaus
El Gusto,Restaurant,36.2626201,6.5892459,Oum El Bouaghi,High Plateaus
Pizza Turtles,Restaurant,36.2649333,6.5882693,Oum El Bouaghi,High Plateaus
Magic House,Restaurant,36.3363054,6.6140908,Oum El Bouaghi,High Plateaus
مشويات شتيليكي وعمي أحمد,Restaurant,35.623607,6.3707735,Oum El Bouaghi,High Plateaus
المكتبة المركزية,Library,35.633911,6.2759976,Oum El Bouaghi,High Plateaus
مركز الفروسية,Tourist Attraction,35.7109118,6.3237579,Oum El Bouaghi,High Plateaus
مسبح نصف أولمبي,Tourist Attraction,35.6690885,6.4247,Oum El Bouaghi,High Plateaus
kk,Forest,35.4070219,7.1276797,Oum El Bouaghi,High Plateaus
kk,Forest,35.4067791,7.127795,Oum El Bouaghi,High Plateaus
kk,Forest,35.4067311,7.127918,Oum El Bouaghi,High Plateaus
kk,Forest,35.4067774,7.1279922,Oum El Bouaghi,High Plateaus
kk,Forest,35.4068802,7.1279983,Oum El Bouaghi,High Plateaus
kk,Forest,35.4069845,7.1280023,Oum El Bouaghi,High Plateaus
hh,Forest,35.4072649,7.1276225,Oum El Bouaghi,High Plateaus
kk,Forest,35.4072916,7.1274393,Oum El Bouaghi,High Plateaus
kk,Forest,35.4072772,7.1275154,Oum El Bouaghi,High Plateaus
kk,Forest,35.4073577,7.1276579,Oum El Bouaghi,High Plateaus
kk,Forest,35.407371,7.1275377,Oum El Bouaghi,High Plateaus
kk,Forest,35.4073863,7.1274443,Oum El Bouaghi,High Plateaus
kk,Forest,35.4073387,7.1274723,Oum El Bouaghi,High Plateaus
kk,Forest,35.4073254,7.1275669,Oum El Bouaghi,High Plateaus
kk,Forest,35.4073254,7.1273135,Oum El Bouaghi,High Plateaus
kk,Forest,35.4073768,7.1273357,Oum El Bouaghi,High Plateaus
Pizza Time Turtle Tacos,Restaurant,36.3620638,6.6077805,Oum El Bouaghi,High Plateaus
Restaurant Igherssan,Restaurant,36.366694,6.6145823,Oum El Bouaghi,High Plateaus
Jbel Saresa,Mountain,35.4047573,6.2875378,Oum El Bouaghi,High Plateaus
Jbel Zana,Mountain,35.3720449,6.3276958,Oum El Bouaghi,High Plateaus
مطعم المدينة,Restaurant,36.2676664,6.6910518,Oum El Bouaghi,High Plateaus
Ain el Hofra,Mountain,36.3324824,7.3036336,Oum El Bouaghi,High Plateaus
Kef Sbihi,Mountain,36.3115288,7.3746103,Oum El Bouaghi,High Plateaus
Jbel el Ar Ara,Mountain,36.4764118,7.3119592,Oum El Bouaghi,High Plateaus
Kef Baba Aissa,Mountain,36.4652303,7.2918748,Oum El Bouaghi,High Plateaus
Jbel Mermoura,Mountain,36.4905934,7.1702098,Oum El Bouaghi,High Plateaus
Sersra,Mountain,36.4598806,7.1744799,Oum El Bouaghi,High Plateaus
Jbel el Sada,Mountain,36.3984874,7.2109794,Oum El Bouaghi,High Plateaus
Jbel Bouharath,Mountain,36.4963551,6.9803094,Oum El Bouaghi,High Plateaus
Jbel Besbes,Mountain,36.4482134,6.8738794,Oum El Bouaghi,High Plateaus
Ichmoussi,Mountain,35.3185395,6.5470576,Oum El Bouaghi,High Plateaus
Jbel Temachtaouin,Mountain,35.3070728,6.5770849,Oum El Bouaghi,High Plateaus
Jbel Bakhsour,Mountain,35.311956,6.5782356,Oum El Bouaghi,High Plateaus
Jbel Iehalkhouane,Mountain,35.340667,6.5030801,Oum El Bouaghi,High Plateaus
Koudiat Biloukda,Mountain,35.2454526,6.5346229,Oum El Bouaghi,High Plateaus
Koudiat el Meddaoura,Mountain,36.1402228,7.624737,Oum El Bouaghi,High Plateaus
Jbel el Himer,Mountain,36.2414826,7.721554,Oum El Bouaghi,High Plateaus
Ras Berda,Mountain,36.2273773,7.5441013,Oum El Bouaghi,High Plateaus
Ras el Arna,Mountain,36.2230582,7.5471994,Oum El Bouaghi,High Plateaus
Koudiat Touila,Mountain,36.2086248,7.5174943,Oum El Bouaghi,High Plateaus
Ras Dir,Mountain,36.2240788,7.5344972,Oum El Bouaghi,High Plateaus
Jbel Bouakaz,Mountain,36.2300198,7.6406703,Oum El Bouaghi,High Plateaus
Koudiat el Hamar,Mountain,36.2364711,7.7245372,Oum El Bouaghi,High Plateaus
Koudiat Bouib,Mountain,36.214821,7.7135663,Oum El Bouaghi,High Plateaus
Jbel Gachouchene,Mountain,36.2388584,7.6938298,Oum El Bouaghi,High Plateaus
Ras el Allia,Mountain,36.2269878,7.6049832,Oum El Bouaghi,High Plateaus
Draa Tigouesse,Mountain,36.133141,7.6502197,Oum El Bouaghi,High Plateaus
Draa Sdoud,Mountain,36.1313915,7.6319957,Oum El Bouaghi,High Plateaus
Koudiat Daghbouche,Mountain,36.0467956,7.7828905,Oum El Bouaghi,High Plateaus
Koudiat Daba,Mountain,36.0500031,7.7914193,Oum El Bouaghi,High Plateaus
Koudiat el Karma,Mountain,36.1044564,7.8227646,Oum El Bouaghi,High Plateaus
Trajan Hotel,Hotel,35.4897973,6.4682697,Oum El Bouaghi,High Plateaus
متحف تازولت,Museum,35.4814716,6.2576267,Oum El Bouaghi,High Plateaus
حديقة الحيوانات أولاد قاسم,Tourist Attraction,36.0513492,6.644526,Oum El Bouaghi,High Plateaus
بزينة,Mountain,36.2830852,7.4886919,Oum El Bouaghi,High Plateaus
sa3ed chway,Restaurant,36.3904998,6.6392518,Oum El Bouaghi,High Plateaus
Hdjar Echouef حجر الشواف,Tourist Attraction,36.5073183,7.0819669,Oum El Bouaghi,High Plateaus
Hôtel El Maghreb,Hotel,36.3667056,6.610904,Oum El Bouaghi,High Plateaus
عمار زهروري,Tourist Attraction,35.8305958,7.5890767,Oum El Bouaghi,High Plateaus
Chabket Magra,Mountain,35.6389429,5.1349591,Batna,High Plateaus
Djebel Amenasse,Mountain,35.7741863,5.5815772,Batna,High Plateaus
Kef Telkhemt,Mountain,35.7287158,5.7554708,Batna,High Plateaus
Djebel Boukhenchoub,Mountain,35.8040701,5.7793317,Batna,High Plateaus
Djebel Boutaleb,Mountain,35.7274323,5.3333975,Batna,High Plateaus
Mestaoua,Mountain,35.6919399,6.0037455,Batna,High Plateaus
Djebel Ich Ali,Mountain,35.4864291,6.1580493,Batna,High Plateaus
Barakat El Andalous,Hotel,35.9086513,5.2955604,Batna,High Plateaus
المكتبة البلدية,Library,34.8466988,5.7327841,Batna,High Plateaus
Praetorium,Archaeological Site,35.4901164,6.254729,Batna,High Plateaus
CEM Bouakal,Stadium,35.5408995,6.1691419,Batna,High Plateaus
Centre Commercial Zidani Hachani,Shopping Mall,35.5505429,6.1752093,Batna,High Plateaus
فندق حازم,Hotel,35.5566809,6.1788492,Batna,High Plateaus
Monument BENBOULAID,Tourist Attraction,35.5551507,6.1781369,Batna,High Plateaus
Djebel Bouarif,Mountain,35.613507,6.4385881,Batna,High Plateaus
Kef el Assa,Mountain,35.7624456,5.0878238,Batna,High Plateaus
ALIOUA,Restaurant,35.7799536,6.4169417,Batna,High Plateaus
Martyre Colonel Mohamed Amouri,Tourist Attraction,35.7751296,6.4121118,Batna,High Plateaus
Fontaine de Ain Yagout Thagouth,Archaeological Site,35.7743766,6.4195871,Batna,High Plateaus
Doubara,Restaurant,35.7765855,6.4140463,Batna,High Plateaus
Resto,Restaurant,35.7752669,6.4123557,Batna,High Plateaus
Djebel Boudjemaa Debbache,Mountain,35.9168686,5.2412857,Batna,High Plateaus
Ourmi,Mountain,35.9128191,5.268835,Batna,High Plateaus
Djebel Belghelaieme,Mountain,35.8090662,5.8137885,Batna,High Plateaus
Djebel Boughid,Mountain,35.8197266,5.844907,Batna,High Plateaus
Koudiet Haïhaïa,Mountain,35.8597715,5.68094,Batna,High Plateaus
Koudiet el Hamia,Mountain,35.8115939,5.7569655,Batna,High Plateaus
Ras Tafza,Mountain,35.8485567,5.7858568,Batna,High Plateaus
Theniet el Grien,Mountain,35.8076513,5.7827675,Batna,High Plateaus
Koudiet Masnouba,Mountain,35.9149281,5.6065885,Batna,High Plateaus
Djebel Tassa,Mountain,35.7686493,5.673639,Batna,High Plateaus
مطعم عائلي,Restaurant,35.555425,5.6103065,Batna,High Plateaus
مطعم,Restaurant,35.553797,5.6112259,Batna,High Plateaus
Le Cordon Bleu,Restaurant,34.852206,5.7413391,Batna,High Plateaus
Resto,Restaurant,34.8572451,5.7156482,Batna,High Plateaus
Resto,Restaurant,35.6463608,5.4588751,Batna,High Plateaus
Resto,Restaurant,35.6475572,5.4580469,Batna,High Plateaus
Resto,Restaurant,35.6482474,5.4585212,Batna,High Plateaus
Tichrirt,Mountain,35.7044641,5.5327956,Batna,High Plateaus
مطعم القبائل,Restaurant,35.5556257,6.1800092,Batna,High Plateaus
Resto,Restaurant,35.6898802,5.4425599,Batna,High Plateaus
Resto,Restaurant,35.7118627,5.4660849,Batna,High Plateaus
Resto,Restaurant,35.7125569,5.4672745,Batna,High Plateaus
Resto,Restaurant,35.7123912,5.466344,Batna,High Plateaus
Hôtel Karim,Hotel,35.5556099,6.1749409,Batna,High Plateaus
Djebel Drinine,Mountain,35.0716811,4.9511858,Batna,High Plateaus
Djebel Sahbana,Mountain,35.126349,4.9260374,Batna,High Plateaus
L'Alhambra,Restaurant,35.9212752,5.295748,Batna,High Plateaus
Grillades Ammar Debbabi,Restaurant,35.9183971,5.2956756,Batna,High Plateaus
مطعم,Restaurant,35.5207579,6.378932,Batna,High Plateaus
Hôtel d'Or,Hotel,35.3839648,5.9045882,Batna,High Plateaus
Resto,Restaurant,35.2465797,5.7006314,Batna,High Plateaus
Resto,Restaurant,35.2463256,5.7006207,Batna,High Plateaus
Resto,Restaurant,35.2462512,5.7006207,Batna,High Plateaus
Resto,Restaurant,35.8595141,6.0023654,Batna,High Plateaus
مكتبة البلدية,Library,35.6406848,5.9955349,Batna,High Plateaus
مطعم سياحي,Restaurant,35.5799043,6.0760256,Batna,High Plateaus
مطعم النخيل,Restaurant,34.7373014,5.4359363,Batna,High Plateaus
مطعم الوداد,Restaurant,34.8543041,5.7285266,Batna,High Plateaus
Resto,Restaurant,35.9269971,5.2959122,Batna,High Plateaus
Resto,Restaurant,35.9215207,5.2960216,Batna,High Plateaus
Resto,Restaurant,35.9149438,5.2956783,Batna,High Plateaus
restaurant de essibakh,Restaurant,35.9014547,5.9430976,Batna,High Plateaus
restaurant Hakim,Restaurant,35.6754666,5.6516078,Batna,High Plateaus
Sahara,Hotel,34.8563335,5.7283657,Batna,High Plateaus
Dar,Hotel,35.2158602,5.7177176,Batna,High Plateaus
مطعم باب الحارة,Restaurant,35.9767064,5.8119323,Batna,High Plateaus
فندق النسيم,Hotel,35.9762586,5.8148159,Batna,High Plateaus
بيت الشباب,Hotel,35.9739469,5.8199061,Batna,High Plateaus
فندق عراب,Hotel,35.9792966,5.8113332,Batna,High Plateaus
مطعم المسافرين,Restaurant,35.9769425,5.8097197,Batna,High Plateaus
مطعم الهضاب,Restaurant,35.976892,5.8102531,Batna,High Plateaus
Bibliothèque municipale,Library,35.978515,5.8069188,Batna,High Plateaus
Resto,Restaurant,35.977468,5.8042511,Batna,High Plateaus
jbel Khezouz,Mountain,35.3139451,6.4226315,Batna,High Plateaus
خيمة ذكرى,Restaurant,35.4003368,5.3511718,Batna,High Plateaus
Koudiet ben Chalek,Mountain,35.9279742,5.4612082,Batna,High Plateaus
Koudiet Sailal,Mountain,35.8071236,5.2907589,Batna,High Plateaus
Ras Boumarouane,Mountain,35.7844343,5.1010956,Batna,High Plateaus
Djebel Kenndour,Mountain,35.8921505,5.2124904,Batna,High Plateaus
Djebel el Battene,Mountain,35.8776938,5.1796318,Batna,High Plateaus
Djebel Kalaoune,Mountain,35.8772662,5.5869708,Batna,High Plateaus
Koudiet Kabre el Diahal,Mountain,35.8746929,5.5775294,Batna,High Plateaus
Koudiet Mimouna,Mountain,35.8758753,5.5664144,Batna,High Plateaus
Koudiet Tbarount,Mountain,35.8888448,5.6511722,Batna,High Plateaus
Koudiet Zarda,Mountain,35.882482,5.5961547,Batna,High Plateaus
Theniet Dayra,Mountain,35.8911395,5.5921207,Batna,High Plateaus
بنات الخبزات,Tourist Attraction,35.1178672,5.5997338,Batna,High Plateaus
القرية القديمة,Tourist Attraction,35.1253508,5.6105287,Batna,High Plateaus
عين القط,Tourist Attraction,35.1268186,5.6816054,Batna,High Plateaus
Djebel Fattas,Mountain,35.9861407,5.9925575,Batna,High Plateaus
Koudiet Oum Tiour,Mountain,35.8184604,5.9323137,Batna,High Plateaus
Djebel Ouasghane,Mountain,35.8168754,5.7744457,Batna,High Plateaus
Djebel Ouasghane,Mountain,35.8181517,5.7765731,Batna,High Plateaus
Djebel Tafouror,Mountain,35.8379273,5.7681588,Batna,High Plateaus
Koudiet Oum Laadoul,Mountain,35.9298869,5.8721795,Batna,High Plateaus
Resto,Restaurant,35.3666994,5.874962,Batna,High Plateaus
Hôtel Fesdis,Hotel,35.6172442,6.2471679,Batna,High Plateaus
المكتبة الاوراسية,Library,35.5644818,6.1506762,Batna,High Plateaus
المكتبة البلدية,Library,35.0689621,5.8449523,Batna,High Plateaus
حظيرة البلدية,Tourist Attraction,35.6875604,5.3755389,Batna,High Plateaus
مكتبة البلدية,Library,35.6861324,5.3778857,Batna,High Plateaus
Koudiat es Seteha,Mountain,35.711784,5.9686024,Batna,High Plateaus
Maison de jeunes Abdelkader Serai,Hotel,34.7280437,5.3869456,Batna,High Plateaus
ساحة عمومية,Tourist Attraction,34.7298401,5.385284,Batna,High Plateaus
مكتبة الشروق,Library,34.7271286,5.3839912,Batna,High Plateaus
Tata fatiha,Hotel,35.5394551,6.1665305,Batna,High Plateaus
Musée Lapidaire d'El Kantara,Museum,35.2209415,5.700887,Batna,High Plateaus
لميمي,Restaurant,35.8511685,5.2894846,Batna,High Plateaus
أسامة,Restaurant,35.8600824,5.2951029,Batna,High Plateaus
متحف العقيد سي الحواس,Museum,34.9489572,6.0088992,Batna,High Plateaus
مطعم,Restaurant,35.3005186,5.3037117,Batna,High Plateaus
Resto,Restaurant,35.3789356,5.8954234,Batna,High Plateaus
نزلت القطافي,Hotel,35.5465807,6.1797156,Batna,High Plateaus
علي بابا و الأربعون طبق,Restaurant,35.3840834,5.3683091,Batna,High Plateaus
Resto,Restaurant,35.3866176,5.3674787,Batna,High Plateaus
فندق ميساوي,Hotel,35.3870159,5.3713063,Batna,High Plateaus
مطعم زرزح (خالي ميلود),Restaurant,35.3878554,5.3708234,Batna,High Plateaus
هاقليحث,Tourist Attraction,35.0186459,6.0427734,Batna,High Plateaus
Siay Atksnd Halakhith,Mountain,35.0114853,6.0538542,Batna,High Plateaus
هاغزوث,Park,35.0212764,6.0468678,Batna,High Plateaus
Resto,Restaurant,35.3870758,5.3703238,Batna,High Plateaus
هاقليحث,Archaeological Site,35.0189135,6.0421455,Batna,High Plateaus
هيغزا,Archaeological Site,35.0093182,6.0385803,Batna,High Plateaus
مكتبة المجاهد عزيز عزيز,Library,35.4383221,5.5585936,Batna,High Plateaus
مكتبة البلدية,Library,35.6857753,5.3779371,Batna,High Plateaus
مكتبة طويل,Library,35.6826471,5.3735711,Batna,High Plateaus
Salle de lecture,Library,35.6769057,6.4826232,Batna,High Plateaus
Place publique,Tourist Attraction,34.7274331,5.3810062,Batna,High Plateaus
المجاهد الحاج لخضر,Tourist Attraction,35.5424667,6.1576704,Batna,High Plateaus
Bibliothèque,Library,35.5533349,6.1587112,Batna,High Plateaus
المجاهد المجهول,Tourist Attraction,35.5429985,6.1844353,Batna,High Plateaus
Petit prince,Restaurant,35.5486041,6.165215,Batna,High Plateaus
Chicoula pizza,Restaurant,35.5519724,6.1646347,Batna,High Plateaus
Hakebuth,Mountain,35.0159127,6.0438434,Batna,High Plateaus
Prestige,Restaurant,35.5463271,6.1574551,Batna,High Plateaus
Hakebuth Lbechna,Mountain,35.0167445,6.0398154,Batna,High Plateaus
آقلمام,Park,35.0167817,6.0387093,Batna,High Plateaus
آعريش,Park,35.0187055,6.039279,Batna,High Plateaus
بيت الشباب غوفي,Hotel,35.0579492,6.165325,Batna,High Plateaus
مطعم حكيم سلامي,Restaurant,35.0665477,5.5808429,Batna,High Plateaus
مطعم عبد الرحمان,Restaurant,35.3074802,5.3740558,Batna,High Plateaus
مزرعة محمود بوطي (سيرو),Tourist Attraction,35.3035702,5.3641232,Batna,High Plateaus
Mont Sidi Ali Barda,Mountain,35.2210378,6.5430447,Batna,High Plateaus
Auberge de jeunesse,Hotel,34.727231,5.3946998,Batna,High Plateaus
فندق - دار الضياف ( في طريق الانجاز),Hotel,34.7272481,5.3873419,Batna,High Plateaus
دار باديس,Hotel,35.629237,6.3797563,Batna,High Plateaus
اقلفن,Tourist Attraction,35.0742671,6.0222573,Batna,High Plateaus
هيطرومكث,Tourist Attraction,35.0848993,6.0281814,Batna,High Plateaus
هازمال,Tourist Attraction,35.097301,6.0518114,Batna,High Plateaus
بوووزال,Tourist Attraction,35.0291707,6.0069169,Batna,High Plateaus
فدعنان,Tourist Attraction,35.0222299,6.0150922,Batna,High Plateaus
Mont en face de Baniane,Mountain,35.0605529,6.024744,Batna,High Plateaus
Début de la route pour revenir à Iguelfen,Mountain,35.017223,6.0261799,Batna,High Plateaus
Ich Amezlaf,Mountain,35.0769851,6.0287302,Batna,High Plateaus
مطعم رائس,Restaurant,35.8601928,5.2952228,Batna,High Plateaus
بيت الشباب,Hotel,34.7272533,5.3946817,Batna,High Plateaus
اكل خفيف,Restaurant,34.737778,5.4129311,Batna,High Plateaus
الجدة جوهرة بن منصور,Tourist Attraction,35.6697723,5.6490469,Batna,High Plateaus
lfyraj nabutunin,Mountain,35.0171249,6.0364628,Batna,High Plateaus
مكتبة نوميديا,Library,34.8526965,5.7488913,Batna,High Plateaus
مطعم,Restaurant,34.7352169,5.4138596,Batna,High Plateaus
محاجب عند عيلو,Restaurant,35.8501533,5.290125,Batna,High Plateaus
مكتبة كعبش,Library,35.8533273,5.2906797,Batna,High Plateaus
مكتبة ابن باديس,Library,34.7290163,5.3752995,Batna,High Plateaus
Musée,Museum,35.5540972,6.1590147,Batna,High Plateaus
Hotel el Hayat,Hotel,35.5540493,6.1757317,Batna,High Plateaus
Auberge de jeunesse EL-KANTARA,Hotel,35.224902,5.7164299,Batna,High Plateaus
مكتبة ووراقة الخليل,Library,35.8498847,5.2950474,Batna,High Plateaus
Bibliothèque communale,Library,36.0077,5.7188,Batna,High Plateaus
هاليليث,Tourist Attraction,35.0747157,5.9942827,Batna,High Plateaus
هاقرنين,Tourist Attraction,35.0410566,5.9803866,Batna,High Plateaus
Market of Sertius,Archaeological Site,35.4846177,6.4667722,Batna,High Plateaus
Albergue de Jeunesse Timgad,Hotel,35.4908011,6.4677897,Batna,High Plateaus
نزل الكاهنة - Hôtel Elkahina,Hotel,35.4901541,6.4677139,Batna,High Plateaus
Arc de Trajan,Archaeological Site,35.4850379,6.4671671,Batna,High Plateaus
Triumphal arch,Archaeological Site,35.4864562,6.4639555,Batna,High Plateaus
Capitolium,Archaeological Site,35.4834949,6.4666444,Batna,High Plateaus
لارباع,Restaurant,35.3918801,6.3148869,Batna,High Plateaus
Bibliothèque communale,Library,35.6659585,5.7896188,Batna,High Plateaus
فندق الياسمين,Hotel,35.5838551,6.1980533,Batna,High Plateaus
سليم موراد,Restaurant,35.3660882,5.8962794,Batna,High Plateaus
قاعة حفلات الزفاف طبنة,Tourist Attraction,35.582181,6.1944315,Batna,High Plateaus
فندق تيمغاد حزام,Hotel,35.5565322,6.1790285,Batna,High Plateaus
Koudiat es Shanine,Mountain,35.8845127,5.2377856,Batna,High Plateaus
Theniat Zakout,Mountain,35.6988635,5.4258253,Batna,High Plateaus
Jbel Ferasen,Mountain,35.7030575,5.4003209,Batna,High Plateaus
Jbel Filou,Mountain,35.7065168,5.4225576,Batna,High Plateaus
Jbel Zoubir,Mountain,35.7160298,5.4381465,Batna,High Plateaus
Jbel Dekaken,Mountain,35.7142004,5.4201865,Batna,High Plateaus
الحديقة الصغيرة,Tourist Attraction,34.7309262,5.3952778,Batna,High Plateaus
Jbel Laaguab,Mountain,35.7467213,5.4828429,Batna,High Plateaus
Koudiet Lemdaoui,Mountain,35.6636858,5.4559135,Batna,High Plateaus
Koudiet Legueraf,Mountain,35.535186,5.4826176,Batna,High Plateaus
1708,Mountain,35.7226498,5.2187633,Batna,High Plateaus
Jbel bou Taleb,Mountain,35.7183991,5.2095365,Batna,High Plateaus
Jbel Soubella,Mountain,35.7118832,5.1809335,Batna,High Plateaus
فندق براهيمي,Hotel,35.5543637,6.1472727,Batna,High Plateaus
Resto,Restaurant,35.5434155,6.1552011,Batna,High Plateaus
فندق بن يحي,Hotel,35.530838,6.1541362,Batna,High Plateaus
Resto,Restaurant,35.4887521,6.4687434,Batna,High Plateaus
نادي الشباب,Hotel,34.7283399,5.381001,Batna,High Plateaus
دوبارة بن الشنة,Restaurant,34.7291444,5.3825213,Batna,High Plateaus
MR DONUTS BATNA,Restaurant,35.5326625,6.0910487,Batna,High Plateaus
Resto,Restaurant,34.8280234,5.7651535,Batna,High Plateaus
Khalel nssib,Tourist Attraction,35.7429296,5.590769,Batna,High Plateaus
Abu Sultan,Restaurant,35.556187,6.1785567,Batna,High Plateaus
Doubara,Restaurant,34.8530434,5.7295312,Batna,High Plateaus
مكتبة ذرا,Library,35.9513186,5.2967002,Batna,High Plateaus
الشواي حسيسن,Restaurant,35.535075,6.1877142,Batna,High Plateaus
سانتا كلارا فود,Restaurant,35.5488559,6.1648952,Batna,High Plateaus
رأس السراء كيمل تكوت,Tourist Attraction,35.0799265,6.4018848,Batna,High Plateaus
مكان للراحة والسياحة الحبال مشونش,Tourist Attraction,34.8974493,5.9181106,Batna,High Plateaus
النصب التذكاري لشهداء ثورة التحرير في كيمل,Tourist Attraction,35.2037668,6.4880805,Batna,High Plateaus
مكان للراحة والسياحة في سالات,Campground,35.1986897,6.4689277,Batna,High Plateaus
حدود أملاك لخضر بن علي علاوة,Tourist Attraction,35.1276534,6.4367762,Batna,High Plateaus
Arafraf أرفراف,Tourist Attraction,35.1407597,6.4265375,Batna,High Plateaus
قمة جبل كلتوم سيدي علي,Campground,35.2201397,6.5417641,Batna,High Plateaus
كودية تفرقنيت,Campground,35.1839781,6.4228057,Batna,High Plateaus
باطيمات سيدي علي كيمل,Hotel,35.2175751,6.5426273,Batna,High Plateaus
Matico,Stadium,35.3812462,5.9019216,Batna,High Plateaus
المكتبة البلدية,Library,35.8522349,5.2849599,Batna,High Plateaus
فندق مسعودي,Hotel,35.534592,6.1474786,Batna,High Plateaus
مكتبة الوصال,Library,35.5423981,6.1565702,Batna,High Plateaus
مكتبة خلوط (النصر),Library,34.8523059,5.7239044,Batna,High Plateaus
Sami Food,Restaurant,34.8505608,5.7064395,Batna,High Plateaus
مكتبة عمي لونيس,Library,35.5450492,6.1675542,Batna,High Plateaus
مكتبة الإخوة أمغشوش,Library,35.2653887,6.0986743,Batna,High Plateaus
دوبارة معراج,Restaurant,35.2644285,6.0995216,Batna,High Plateaus
مطبخ حميد,Restaurant,35.2645111,6.0994603,Batna,High Plateaus
جلال العمري,Hotel,34.8012974,5.9495575,Batna,High Plateaus
Resto,Restaurant,35.6164035,6.2454776,Batna,High Plateaus
Resto,Restaurant,35.6045373,6.2251514,Batna,High Plateaus
Resto,Restaurant,35.6168586,6.2456039,Batna,High Plateaus
Theatre,Archaeological Site,35.4841709,6.4688551,Batna,High Plateaus
Forum,Archaeological Site,35.4848096,6.4688325,Batna,High Plateaus
منزلي,Hotel,35.2192498,6.110498,Batna,High Plateaus
Délice crêpes,Restaurant,35.5360692,6.1508911,Batna,High Plateaus
نخلة,Forest,34.7634746,5.8980517,Batna,High Plateaus
نخلة,Forest,34.7627252,5.8977359,Batna,High Plateaus
نخلة,Forest,34.7633619,5.8983367,Batna,High Plateaus
نخلة,Forest,34.7633884,5.8984747,Batna,High Plateaus
نخلة,Forest,34.7633141,5.8985721,Batna,High Plateaus
نخلة,Forest,34.7632627,5.8986869,Batna,High Plateaus
نخلة,Forest,34.7632198,5.8987703,Batna,High Plateaus
نخلة,Forest,34.7631684,5.897807,Batna,High Plateaus
نخلة,Forest,34.763077,5.8977861,Batna,High Plateaus
نخلة,Forest,34.763017,5.8977618,Batna,High Plateaus
نخلة,Forest,34.7629284,5.8977687,Batna,High Plateaus
نخلة,Forest,34.7625553,5.8977444,Batna,High Plateaus
نخلة,Forest,34.7631054,5.8991446,Batna,High Plateaus
نخلة,Forest,34.7631104,5.8992945,Batna,High Plateaus
نخلة,Forest,34.762797,5.8991363,Batna,High Plateaus
نخلة,Forest,34.7629797,5.8990542,Batna,High Plateaus
نخلة,Forest,34.7630365,5.8993088,Batna,High Plateaus
نخلة,Forest,34.7631029,5.8993936,Batna,High Plateaus
نخلة,Forest,34.7631247,5.8994845,Batna,High Plateaus
نخلة,Forest,34.7630466,5.8995102,Batna,High Plateaus
نخلة,Forest,34.7632238,5.8997189,Batna,High Plateaus
نخلة,Forest,34.7632552,5.8998058,Batna,High Plateaus
نخلة,Forest,34.763258,5.9000145,Batna,High Plateaus
نخلة,Forest,34.7632038,5.8998962,Batna,High Plateaus
نخلة,Forest,34.7632809,5.8998649,Batna,High Plateaus
نخلة,Forest,34.7628188,5.8997873,Batna,High Plateaus
نخلة,Forest,34.7636294,5.9005361,Batna,High Plateaus
نخلة,Forest,34.7635295,5.9004422,Batna,High Plateaus
نخلة,Forest,34.7634095,5.9004979,Batna,High Plateaus
نخلة,Forest,34.763258,5.9005779,Batna,High Plateaus
نخلة,Forest,34.7630838,5.9005431,Batna,High Plateaus
نخلة,Forest,34.7630152,5.9001153,Batna,High Plateaus
نخلة,Forest,34.763358,5.9000492,Batna,High Plateaus
نخلة,Forest,34.7629882,5.8993933,Batna,High Plateaus
fecus,Forest,34.8636026,5.7284881,Batna,High Plateaus
fecus,Forest,34.8637694,5.7285004,Batna,High Plateaus
fecus,Forest,34.8639413,5.7284573,Batna,High Plateaus
fecus,Forest,34.8641638,5.7284326,Batna,High Plateaus
fecus,Forest,34.864275,5.7282354,Batna,High Plateaus
fecus,Forest,34.8640121,5.7282539,Batna,High Plateaus
fecus,Forest,34.8638048,5.7282416,Batna,High Plateaus
fecus,Forest,34.863547,5.7282477,Batna,High Plateaus
fecus,Forest,34.86337,5.7284942,Batna,High Plateaus
fecus,Forest,34.863729,5.7280629,Batna,High Plateaus
fecus,Forest,34.8640071,5.7280382,Batna,High Plateaus
fecus,Forest,34.8644019,5.7280191,Batna,High Plateaus
fecus,Forest,34.8645087,5.7282173,Batna,High Plateaus
fecus,Forest,34.8646655,5.7280687,Batna,High Plateaus
fecus,Forest,34.8645029,5.7270282,Batna,High Plateaus
fecus,Forest,34.8642648,5.7270211,Batna,High Plateaus
fecus,Forest,34.8639337,5.7270352,Batna,High Plateaus
fecus,Forest,34.8636433,5.7270423,Batna,High Plateaus
fecus,Forest,34.8662308,5.7285416,Batna,High Plateaus
fecus,Forest,34.8661863,5.728414,Batna,High Plateaus
fecus,Forest,34.8661459,5.7282753,Batna,High Plateaus
fecus,Forest,34.8660751,5.7281151,Batna,High Plateaus
fecus,Forest,34.8661358,5.7285927,Batna,High Plateaus
fecus,Forest,34.8657717,5.7288268,Batna,High Plateaus
fecus,Forest,34.8657085,5.7286358,Batna,High Plateaus
fecus,Forest,34.8657363,5.7284602,Batna,High Plateaus
fecus,Forest,34.8658653,5.728337,Batna,High Plateaus
fecus,Forest,34.8659436,5.7280905,Batna,High Plateaus
fecus,Forest,34.8659209,5.7286666,Batna,High Plateaus
fecus,Forest,34.8660372,5.7286451,Batna,High Plateaus
fecus,Forest,34.8656428,5.7287159,Batna,High Plateaus
Ain Ben Naoui's valley,Valley,34.8060571,5.6537088,Batna,High Plateaus
نخلة,Forest,34.7627039,5.8993098,Batna,High Plateaus
نخلة,Forest,34.7625707,5.8993823,Batna,High Plateaus
نخلة,Forest,34.7625041,5.8994335,Batna,High Plateaus
نخلة,Forest,34.7627319,5.8996596,Batna,High Plateaus
نخلة,Forest,34.7626303,5.8994761,Batna,High Plateaus
نخلة,Forest,34.7629807,5.8996766,Batna,High Plateaus
نخلة,Forest,34.7630438,5.8997918,Batna,High Plateaus
نخلة,Forest,34.7630753,5.8999198,Batna,High Plateaus
نخلة,Forest,34.7629176,5.899843,Batna,High Plateaus
نخلة,Forest,34.762809,5.8999113,Batna,High Plateaus
نخلة,Forest,34.7628966,5.9000094,Batna,High Plateaus
نخلة,Forest,34.7628791,5.9001672,Batna,High Plateaus
نخلة,Forest,34.7627569,5.8987069,Batna,High Plateaus
نخلة,Forest,34.762553,5.8991232,Batna,High Plateaus
نخلة,Forest,34.7624971,5.8990632,Batna,High Plateaus
نخلة,Forest,34.7624511,5.8989871,Batna,High Plateaus
نخلة,Forest,34.7623787,5.8989231,Batna,High Plateaus
دار خالي رشيد,Hotel,35.5500929,6.157829,Batna,High Plateaus
بيتزيريا إسبانيا,Restaurant,35.7961512,5.6805303,Batna,High Plateaus
مشويات شتيليكي وعمي أحمد,Restaurant,35.623607,6.3707735,Batna,High Plateaus
المكتبة المركزية,Library,35.633911,6.2759976,Batna,High Plateaus
مركز الفروسية,Tourist Attraction,35.7109118,6.3237579,Batna,High Plateaus
مسبح نصف أولمبي,Tourist Attraction,35.6690885,6.4247,Batna,High Plateaus
بالاس,Hotel,34.8548449,5.7307204,Batna,High Plateaus
Ras Lamzara,Mountain,35.8009076,5.5349529,Batna,High Plateaus
Djabel Manchar,Mountain,35.8498221,5.5915475,Batna,High Plateaus
Djabel Ali Belgacem,Mountain,35.7574309,5.6624651,Batna,High Plateaus
Djebel Gouzih,Mountain,35.7894056,5.5585926,Batna,High Plateaus
Ras el Kerma,Mountain,35.7898264,5.548823,Batna,High Plateaus
Aoun Allah,Mountain,35.840212,5.7115066,Batna,High Plateaus
Djebel Mahdjouba,Mountain,35.8262907,5.7286459,Batna,High Plateaus
دارنا,Hotel,34.8456811,5.6980951,Batna,High Plateaus
حظيرة البلدية,Park,35.8158557,5.0942015,Batna,High Plateaus
Koudiat Ichamoul,Mountain,35.2912392,6.1482024,Batna,High Plateaus
Koudiat Tichemouras,Mountain,35.2712792,6.118564,Batna,High Plateaus
Koudiat Thizribine,Mountain,35.2783891,6.2279146,Batna,High Plateaus
Ras Grouza,Mountain,35.1414236,6.3615346,Batna,High Plateaus
Ras Chouf,Mountain,35.1424062,6.3928735,Batna,High Plateaus
Bougherzal,Mountain,35.0482327,6.2960672,Batna,High Plateaus
Jbel Ichaadri,Mountain,35.2335791,6.273365,Batna,High Plateaus
Iche Oufagous,Mountain,35.2383725,6.2969041,Batna,High Plateaus
Jbel Saresa,Mountain,35.4047573,6.2875378,Batna,High Plateaus
Kef Lahmer,Mountain,35.4013992,6.2815511,Batna,High Plateaus
Jbel Zana,Mountain,35.3720449,6.3276958,Batna,High Plateaus
Kef Sara,Mountain,35.3283785,6.2847268,Batna,High Plateaus
Jbel Azahoume,Mountain,35.2842945,6.2940985,Batna,High Plateaus
Jbel Abenkouk Ali Amehend,Mountain,35.2721639,6.3081479,Batna,High Plateaus
Ichmoussi,Mountain,35.3185395,6.5470576,Batna,High Plateaus
Jbel Temachtaouin,Mountain,35.3070728,6.5770849,Batna,High Plateaus
Jbel Bakhsour,Mountain,35.311956,6.5782356,Batna,High Plateaus
Jbel Iehalkhouane,Mountain,35.340667,6.5030801,Batna,High Plateaus
Koudiat Biloukda,Mountain,35.2454526,6.5346229,Batna,High Plateaus
Trajan Hotel,Hotel,35.4897973,6.4682697,Batna,High Plateaus
متحف تازولت,Museum,35.4814716,6.2576267,Batna,High Plateaus
Calisthenics,Park,34.842825,5.7347206,Batna,High Plateaus
خيمة سيدي عقبة,Restaurant,35.551051,6.1554713,Batna,High Plateaus
زهرة اللوتس,Tourist Attraction,36.1960404,5.4062398,Béjaïa,Coastal
La mairie,Museum,36.408089,4.8920633,Béjaïa,Coastal
Adrar Laâlem,Mountain,36.6053034,5.4441456,Béjaïa,Coastal
Achouaou,Mountain,36.5660682,5.4383432,Béjaïa,Coastal
Hôtel Reggani,Hotel,36.1901524,5.4048873,Béjaïa,Coastal
Monument aux morts,Tourist Attraction,36.4423187,4.8545409,Béjaïa,Coastal
Adrar Tamgut,Mountain,36.8191146,4.415991,Béjaïa,Coastal
Agouni Hakoucha,Mountain,36.8350629,4.2261031,Béjaïa,Coastal
Acherouf Mira,Mountain,36.8270937,4.2751983,Béjaïa,Coastal
Tiruda,Mountain,36.4832865,4.3632323,Béjaïa,Coastal
Azrou Idjer,Mountain,36.5011667,4.3525249,Béjaïa,Coastal
Restaurant Sirene Bleu,Restaurant,36.6629354,5.1768067,Béjaïa,Coastal
Geldaman,Mountain,36.4614474,4.6239052,Béjaïa,Coastal
Adrar Babor,Mountain,36.5012645,5.474273,Béjaïa,Coastal
Aqueduc Romain,Archaeological Site,36.7634815,4.9139939,Béjaïa,Coastal
حديقة حيوانات سطيف,Zoo,36.1945329,5.4067468,Béjaïa,Coastal
Djebel Tamesguida,Mountain,36.5672337,5.7553838,Béjaïa,Coastal
Djebel El Halfa,Mountain,36.4203952,5.7811235,Béjaïa,Coastal
Djebel Baïssa,Mountain,36.4439462,5.834422,Béjaïa,Coastal
Djebel Djemaa Debbah,Mountain,36.4349007,5.8048018,Béjaïa,Coastal
Djebel Amsioune,Mountain,36.4494696,5.8132991,Béjaïa,Coastal
Azru n Thur,Mountain,36.4894602,4.3890501,Béjaïa,Coastal
Djebel Mkerkech,Mountain,36.5536734,5.8858547,Béjaïa,Coastal
Hôtel Royal,Hotel,36.7450545,5.0413365,Béjaïa,Coastal
Voute ASWB,Stadium,36.7435506,5.0410333,Béjaïa,Coastal
Résidence Chréa,Hotel,36.7485903,5.0537591,Béjaïa,Coastal
Place Gueydon,Tourist Attraction,36.7525471,5.0854365,Béjaïa,Coastal
Biobliothèque municipale Abdelbaki Salah,Library,36.819493,5.767337,Béjaïa,Coastal
Barberousse,Hotel,36.8086643,5.772291,Béjaïa,Coastal
فندق الجزيرة,Hotel,36.8227291,5.7672649,Béjaïa,Coastal
Hôtel Nassim,Hotel,36.8227953,5.7563144,Béjaïa,Coastal
Essalem,Hotel,36.8118742,5.7681288,Béjaïa,Coastal
Musée du Martyr,Museum,36.4641895,4.5361577,Béjaïa,Coastal
Mausolé du piton,Archaeological Site,36.4463405,4.5293552,Béjaïa,Coastal
Centre Commercial la foire du pitton,Shopping Mall,36.447484,4.5296234,Béjaïa,Coastal
Hôtel Belle Vue,Hotel,36.464225,4.538405,Béjaïa,Coastal
Hôtel Palace,Hotel,36.4523309,4.5325261,Béjaïa,Coastal
Le mausolée turc,Archaeological Site,36.4620902,4.5403691,Béjaïa,Coastal
Hôtel de la Zone,Hotel,36.4828126,4.5586933,Béjaïa,Coastal
Hotel El Mokhtar,Hotel,36.1895566,5.4055721,Béjaïa,Coastal
Dar el Moualim,Hotel,36.1986965,5.4041386,Béjaïa,Coastal
Hôtel Zidane,Hotel,36.2005049,5.4130069,Béjaïa,Coastal
Hotel El Bachir,Hotel,36.1896609,5.4047785,Béjaïa,Coastal
Monument des Martyrs Tizit,Tourist Attraction,36.5138402,4.4205405,Béjaïa,Coastal
Bibliotheque Association Culturelle TAWRIRT,Library,36.5173807,4.4123549,Béjaïa,Coastal
Assensu T Zinkoucht,Campground,36.5133905,4.4090049,Béjaïa,Coastal
Tajma3t l Qayus Historique,Museum,36.5108618,4.4056279,Béjaïa,Coastal
Chez Madaoui Djamel,Restaurant,36.6094994,4.693302,Béjaïa,Coastal
Taftist Abecaṛ,Beach,36.892265,4.209931,Béjaïa,Coastal
Le Delice,Restaurant,36.7464257,4.3621663,Béjaïa,Coastal
Djaballah,Restaurant,36.7461369,4.3648667,Béjaïa,Coastal
Gargote,Restaurant,36.6194651,4.476949,Béjaïa,Coastal
Resto,Restaurant,36.6184038,4.4769892,Béjaïa,Coastal
Tazrutt,Tourist Attraction,36.6672088,4.5178626,Béjaïa,Coastal
Hotel El Fouara,Hotel,36.1898555,5.4048593,Béjaïa,Coastal
Hotel El Kenz,Hotel,36.1901851,5.4072623,Béjaïa,Coastal
Restaurant (Brahmi et freres),Restaurant,36.6669837,4.5131463,Béjaïa,Coastal
Agni L'Khemis,Stadium,36.8289317,4.2566522,Béjaïa,Coastal
Monument Galère de Barberousse,Tourist Attraction,36.8167324,5.7715357,Béjaïa,Coastal
Hôtel Bassorah,Hotel,36.8174534,5.7713164,Béjaïa,Coastal
Azrou n Bechar,Park,36.6478666,4.9568206,Béjaïa,Coastal
Hôtel Le Convivial,Hotel,36.8111806,5.778376,Béjaïa,Coastal
Le Glacier,Hotel,36.8224805,5.7685346,Béjaïa,Coastal
Hôtel Taghrast,Hotel,36.8218803,5.7686483,Béjaïa,Coastal
Auberge de jeunesse,Hotel,36.813466,5.7454975,Béjaïa,Coastal
Restaurant Adour,Restaurant,36.6271289,4.7285642,Béjaïa,Coastal
Monument des martyrs Ger Iberdan,Tourist Attraction,36.5861442,4.6019743,Béjaïa,Coastal
Hôtel Madala,Hotel,36.7506927,5.0485718,Béjaïa,Coastal
Resto,Restaurant,36.6162689,4.4778609,Béjaïa,Coastal
Resto,Restaurant,36.6172162,4.4770321,Béjaïa,Coastal
Resto,Restaurant,36.6161792,4.4787045,Béjaïa,Coastal
Tabac & Papeterie,Library,36.6657979,4.5199852,Béjaïa,Coastal
Tabac & Papeterie,Library,36.6654666,4.5207523,Béjaïa,Coastal
Tabac & Papeterie,Library,36.6171513,4.4770821,Béjaïa,Coastal
Hôtel Tadj El Mouada,Hotel,36.1902108,5.4074357,Béjaïa,Coastal
Citadelle,Restaurant,36.1903033,5.3847898,Béjaïa,Coastal
Resto,Restaurant,36.1888566,5.4226611,Béjaïa,Coastal
Monument aux Morts,Tourist Attraction,36.8231156,5.7654368,Béjaïa,Coastal
Resto,Restaurant,36.8234581,5.7668047,Béjaïa,Coastal
bibliotheque communale,Library,36.7972489,4.4226494,Béjaïa,Coastal
مهراجا مطعم هندي,Restaurant,36.1936398,5.4014284,Béjaïa,Coastal
Tikintoucht,Mountain,36.5074641,5.0922723,Béjaïa,Coastal
Djebel Tafet,Mountain,36.3102406,5.1073865,Béjaïa,Coastal
Boumahmoud,Mountain,36.3513311,5.1798677,Béjaïa,Coastal
Djebel Megeres,Mountain,36.3308628,5.3544642,Béjaïa,Coastal
Djebel Chilkene,Mountain,36.3319954,5.2657105,Béjaïa,Coastal
Kef Eddalia,Mountain,36.2543796,5.2408014,Béjaïa,Coastal
Chabet Cheurfa,Mountain,36.3711411,5.3019649,Béjaïa,Coastal
Adrar Tababort,Mountain,36.5383953,5.4555575,Béjaïa,Coastal
Djebel Es-Serdj,Mountain,36.5288625,5.6656825,Béjaïa,Coastal
Residence Alpha,Hotel,36.8700642,4.8340929,Béjaïa,Coastal
Ldjamaâ n Temrijt,Archaeological Site,36.7799893,4.9420746,Béjaïa,Coastal
Plage de Saket,Beach,36.8287488,4.9434521,Béjaïa,Coastal
Resto,Restaurant,36.3830094,4.4032162,Béjaïa,Coastal
Resto,Restaurant,36.3882041,4.4004937,Béjaïa,Coastal
آثييندا,Restaurant,36.1964703,5.4067297,Béjaïa,Coastal
Bou Azza,Mountain,36.6046003,5.922045,Béjaïa,Coastal
Hôtel La Résidence,Hotel,36.8167332,5.7721796,Béjaïa,Coastal
Djebel Hdid,Mountain,36.6226723,5.5525345,Béjaïa,Coastal
m'Alghaghe,Mountain,36.621391,5.5156332,Béjaïa,Coastal
Tlouden,Mountain,36.6201473,5.5232651,Béjaïa,Coastal
Hôtel Rayane,Hotel,36.8233887,5.7675584,Béjaïa,Coastal
Monument aux morts,Tourist Attraction,36.8178894,5.7714345,Béjaïa,Coastal
Monument Illulen Umalu,Tourist Attraction,36.5830101,4.4381234,Béjaïa,Coastal
Restaurant Slimani,Restaurant,36.5813904,4.4418806,Béjaïa,Coastal
Librairie Samir,Library,36.5795984,4.4452701,Béjaïa,Coastal
Librairie Bellagh,Library,36.5814766,4.4415781,Béjaïa,Coastal
Resto,Restaurant,36.5793225,4.4454525,Béjaïa,Coastal
Resto,Restaurant,36.581253,4.4399693,Béjaïa,Coastal
Djaffar,Library,36.5861809,4.4332745,Béjaïa,Coastal
Lazrak (rochers),Waterbody,36.8280933,5.7610638,Béjaïa,Coastal
Ruines du Sor,Archaeological Site,36.8245923,5.7599,Béjaïa,Coastal
Pic des singes,Mountain,36.769559,5.0962835,Béjaïa,Coastal
Le Jasmin,Restaurant,36.7499448,5.0835577,Béjaïa,Coastal
Hôtel Belle vue,Hotel,36.3162735,5.7375456,Béjaïa,Coastal
Le Tyrolien,Restaurant,36.8157667,5.770615,Béjaïa,Coastal
Djbel Mnaguer,Mountain,36.2872295,5.4670538,Béjaïa,Coastal
Djebe Lacel,Mountain,36.3507827,5.4409439,Béjaïa,Coastal
Djebel Seba Regoud,Mountain,36.3336572,5.4051055,Béjaïa,Coastal
Le Thaïs,Hotel,36.8099889,4.9843391,Béjaïa,Coastal
Cascade de Kefrida,Tourist Attraction,36.5706105,5.2899922,Béjaïa,Coastal
Bibliothèque municipale,Library,36.5416052,4.6129945,Béjaïa,Coastal
Resto,Restaurant,36.5361146,4.6068838,Béjaïa,Coastal
Resto,Restaurant,36.5215767,4.5975825,Béjaïa,Coastal
Resto,Restaurant,36.5445078,4.6095926,Béjaïa,Coastal
Resto,Restaurant,36.5524504,4.626427,Béjaïa,Coastal
Resto,Restaurant,36.5382176,4.6095505,Béjaïa,Coastal
Hôtel Le Sarasin,Hotel,36.7378276,5.0651542,Béjaïa,Coastal
Centre Thalassothérapie,Hotel,36.6713013,5.1524565,Béjaïa,Coastal
Al-Mudayna Hotel,Hotel,36.6702498,5.1548375,Béjaïa,Coastal
Camping Sabaihi,Campground,36.6680138,5.1577748,Béjaïa,Coastal
Hôtel Beau Rivage,Hotel,36.673081,5.1445904,Béjaïa,Coastal
Résidence Saphir Bleu,Hotel,36.6653888,5.1688511,Béjaïa,Coastal
"Hôtel Villa Dest Tichy, Algérie",Hotel,36.6645121,5.1697679,Béjaïa,Coastal
Restaurant Etoile de Mer,Restaurant,36.6646662,5.1707089,Béjaïa,Coastal
Messaia,Mountain,36.6585464,5.4700823,Béjaïa,Coastal
Taouennart,Mountain,36.7070925,5.5819151,Béjaïa,Coastal
Djebel Mouloutou,Mountain,36.3243464,5.4878222,Béjaïa,Coastal
Djebel Hamadi,Mountain,36.2748704,5.4657515,Béjaïa,Coastal
Hôtel Gouraya,Hotel,36.7514169,5.0722193,Béjaïa,Coastal
Monument de Fadhma N'Soumeur,Tourist Attraction,36.5126927,4.3616257,Béjaïa,Coastal
Musée des Martyrs d'Iferhounnene,Museum,36.5378639,4.3652555,Béjaïa,Coastal
Resto,Restaurant,36.5469944,4.3340071,Béjaïa,Coastal
Takhelwit n Fadma n Soumer,Museum,36.5123189,4.3632084,Béjaïa,Coastal
Resto,Restaurant,36.1697879,5.2351565,Béjaïa,Coastal
Resto,Restaurant,36.1697629,5.23353,Béjaïa,Coastal
Monument du Chahid,Tourist Attraction,36.6124101,4.6964665,Béjaïa,Coastal
La Grotte Merveilleuse,Tourist Attraction,36.6930723,5.5235339,Béjaïa,Coastal
restaurant le parc,Restaurant,36.7927392,5.6605045,Béjaïa,Coastal
Pizzéria,Restaurant,36.7720498,5.6137147,Béjaïa,Coastal
M'rada,Mountain,36.6502898,5.4757312,Béjaïa,Coastal
Breq,Mountain,36.6672326,5.5092858,Béjaïa,Coastal
Sidi Abed,Mountain,36.6239053,5.4517958,Béjaïa,Coastal
Tatrocht n Lella Kouba,Mountain,36.6073965,5.5058281,Béjaïa,Coastal
Tabahrat,Beach,36.6618696,5.4351403,Béjaïa,Coastal
M'El Hella,Mountain,36.6204788,5.500861,Béjaïa,Coastal
Tachachite,Mountain,36.5938544,5.4688704,Béjaïa,Coastal
Ghar El Baz,Tourist Attraction,36.7005249,5.5378961,Béjaïa,Coastal
Aghil Khlef,Mountain,36.6596428,5.516178,Béjaïa,Coastal
Draâ El Had,Mountain,36.6563437,5.5069634,Béjaïa,Coastal
Tamesrant,Mountain,36.660424,5.5416518,Béjaïa,Coastal
Adrar Lkouf,Mountain,36.6139269,5.4597572,Béjaïa,Coastal
Aguena Ouzebbouch,Mountain,36.6379097,5.5419617,Béjaïa,Coastal
Ighil Youssef,Mountain,36.6017983,5.5087052,Béjaïa,Coastal
Akerkour n Timaâlebt,Mountain,36.606389,5.449785,Béjaïa,Coastal
Sidi Ali,Mountain,36.6174637,5.5397446,Béjaïa,Coastal
Afaghir,Mountain,36.6568383,5.4199015,Béjaïa,Coastal
Ras Lota n Dris,Mountain,36.5926844,5.4792404,Béjaïa,Coastal
Azrou Yeflène,Mountain,36.4388965,4.826841,Béjaïa,Coastal
Tilla,Mountain,36.3670176,4.862258,Béjaïa,Coastal
Aghil Djebla,Mountain,36.5380942,5.4996199,Béjaïa,Coastal
Ighil Bouharate,Mountain,36.6053589,5.4943445,Béjaïa,Coastal
Tatrocht Amer,Mountain,36.6027532,5.4781143,Béjaïa,Coastal
Boukhezroun,Forest,36.6488819,5.452233,Béjaïa,Coastal
S'fah,Mountain,36.6342028,5.540281,Béjaïa,Coastal
Achbote,Mountain,36.6304622,5.5403329,Béjaïa,Coastal
Tazegzaout,Mountain,36.620048,5.6217571,Béjaïa,Coastal
Taguerourt,Mountain,36.6197249,5.5821948,Béjaïa,Coastal
Agoume,Mountain,36.6070182,5.6622843,Béjaïa,Coastal
Draâ Takheribt,Mountain,36.6271353,5.5359299,Béjaïa,Coastal
Ighil Tougrast,Mountain,36.6118574,5.5060721,Béjaïa,Coastal
Ighil Lella Takouba,Mountain,36.6162723,5.5056774,Béjaïa,Coastal
restaurant les horloges,Restaurant,36.5381015,4.343786,Béjaïa,Coastal
Aghil Slama,Mountain,36.656442,5.4398955,Béjaïa,Coastal
Ighil Amilane,Mountain,36.6387589,5.4936057,Béjaïa,Coastal
Aghil Amrane,Mountain,36.6419504,5.5062539,Béjaïa,Coastal
Ighil Ou'guemoune,Mountain,36.6457739,5.4485998,Béjaïa,Coastal
Aghil Abad,Mountain,36.6340967,5.5236219,Béjaïa,Coastal
Adrar Aït Melloul,Mountain,36.6044445,5.4251007,Béjaïa,Coastal
Aqenjouh n Tisselt,Mountain,36.6085254,5.4317256,Béjaïa,Coastal
Tamrabet,Mountain,36.6074331,5.4008881,Béjaïa,Coastal
Ras Attroche Ameqrane,Mountain,36.5396735,5.455617,Béjaïa,Coastal
Ighil Tariqt,Mountain,36.5283686,5.478121,Béjaïa,Coastal
Ighil Tiourane,Mountain,36.5779964,5.4963554,Béjaïa,Coastal
Nator,Mountain,36.5413464,5.536618,Béjaïa,Coastal
Boudimen,Mountain,36.5610121,5.5366609,Béjaïa,Coastal
Ighil Tarigt,Mountain,36.5868653,5.5313599,Béjaïa,Coastal
Tabesbast,Mountain,36.5989858,5.5405718,Béjaïa,Coastal
Resto,Restaurant,36.1900562,5.4044536,Béjaïa,Coastal
Resto,Restaurant,36.1894564,5.4055533,Béjaïa,Coastal
Bouach,Mountain,36.6630037,5.600832,Béjaïa,Coastal
Tafrawt,Mountain,36.5403176,5.5192523,Béjaïa,Coastal
Ighil Ou'behri,Mountain,36.5150892,5.4170674,Béjaïa,Coastal
Tawennart,Mountain,36.5159204,5.3796797,Béjaïa,Coastal
Tizi n'Tgourte,Mountain,36.5185179,5.3648029,Béjaïa,Coastal
Ighil Khrakhra,Mountain,36.5182951,5.3489312,Béjaïa,Coastal
Iɣil Wemnar,Mountain,36.5087091,5.3348156,Béjaïa,Coastal
Ighil Mâareb,Mountain,36.5113996,5.3414246,Béjaïa,Coastal
Taourirte n'Djerra,Mountain,36.5108084,5.3221125,Béjaïa,Coastal
Ighil Tmediazine,Mountain,36.5131956,5.3140241,Béjaïa,Coastal
Adhrar Ou'Mellal,Mountain,36.523909,5.3163018,Béjaïa,Coastal
Ighil Touk,Mountain,36.5234013,5.3220431,Béjaïa,Coastal
Taourirte Ich,Mountain,36.5261602,5.3252832,Béjaïa,Coastal
Agueni Ali,Mountain,36.5407473,5.3222886,Béjaïa,Coastal
Agoug,Mountain,36.5457592,5.6352847,Béjaïa,Coastal
Monument aux morts,Tourist Attraction,36.7549753,5.0866071,Béjaïa,Coastal
Resto,Restaurant,36.8231999,4.949085,Béjaïa,Coastal
Taourirt Idmamen,Mountain,36.6098182,5.4715826,Béjaïa,Coastal
Ighil Ouguemoun,Mountain,36.6064354,5.4759078,Béjaïa,Coastal
Le Roi,Restaurant,36.3712051,4.3480708,Béjaïa,Coastal
Ighil Tamlekte,Mountain,36.6066785,5.4806284,Béjaïa,Coastal
Ighil Bouyiblatten,Mountain,36.6099857,5.5027318,Béjaïa,Coastal
Hôtel Tafet,Hotel,36.3340999,5.0895755,Béjaïa,Coastal
Thala Oughanim,Waterbody,36.4632983,5.2089452,Béjaïa,Coastal
Hôtel FERDI,Hotel,36.1850515,5.4060053,Béjaïa,Coastal
دولاب هواء,Tourist Attraction,36.1924381,5.4066868,Béjaïa,Coastal
سفينة القراصنة,Tourist Attraction,36.1911485,5.4081971,Béjaïa,Coastal
قطار,Tourist Attraction,36.1920707,5.4076552,Béjaïa,Coastal
مرح الجولة,Tourist Attraction,36.192417,5.4076552,Béjaïa,Coastal
Amirouche le Lion du Djurdjura,Tourist Attraction,36.5520138,4.2308133,Béjaïa,Coastal
Azrou Oubabor,Mountain,36.4489955,4.7824647,Béjaïa,Coastal
Azrou Lehouatte,Mountain,36.4403355,4.7841559,Béjaïa,Coastal
Azrou Idelsane,Mountain,36.4409373,4.7780089,Béjaïa,Coastal
Azrou Azeggaghe,Mountain,36.4345846,4.7879355,Béjaïa,Coastal
Magraman,Mountain,36.5571025,5.5562273,Béjaïa,Coastal
Azrou Yahia,Mountain,36.7406942,5.6102159,Béjaïa,Coastal
Thiziri,Hotel,36.740767,5.059328,Béjaïa,Coastal
ACHROUF NATH ALI,Park,36.8282009,4.251694,Béjaïa,Coastal
Acruf Uzala,Park,36.8246881,4.2576426,Béjaïa,Coastal
Ighil Bouidmene,Mountain,36.5995899,5.5081197,Béjaïa,Coastal
Resto,Restaurant,36.8197521,4.3157061,Béjaïa,Coastal
Resto,Restaurant,36.0854485,4.7807706,Béjaïa,Coastal
Resto,Restaurant,36.0883451,4.7660431,Béjaïa,Coastal
Resto,Restaurant,36.0891268,4.7671013,Béjaïa,Coastal
Djebel Sidi Mansour,Mountain,36.5922172,5.8048037,Béjaïa,Coastal
Djebel El Kelaa,Mountain,36.5917468,5.7202726,Béjaïa,Coastal
Kef Tissenèn,Mountain,36.6024355,5.7237069,Béjaïa,Coastal
Resto,Restaurant,36.0801879,4.7758788,Béjaïa,Coastal
Resto,Restaurant,36.0806066,4.7773115,Béjaïa,Coastal
Resto,Restaurant,36.0782911,4.7733593,Béjaïa,Coastal
Resto,Restaurant,36.0786952,4.7741012,Béjaïa,Coastal
Resto,Restaurant,36.0785999,4.7739081,Béjaïa,Coastal
Tafertast,Mountain,36.1532504,4.5920354,Béjaïa,Coastal
Kef Aâraf,Mountain,36.635272,5.4643854,Béjaïa,Coastal
Kef Bektour,Mountain,36.562249,5.4154814,Béjaïa,Coastal
Djebel Chelkha,Mountain,36.3123048,4.9543144,Béjaïa,Coastal
Draâ Chréa,Mountain,36.6543863,5.5786923,Béjaïa,Coastal
Stèle des Martyrs,Tourist Attraction,36.6420888,4.903233,Béjaïa,Coastal
Restaurant Le Bon Goût,Restaurant,36.5386448,4.6100646,Béjaïa,Coastal
Restaurant Le Chêne,Restaurant,36.5517,4.5746795,Béjaïa,Coastal
Ait Ziki,Mountain,36.5530339,4.5099901,Béjaïa,Coastal
Resto,Restaurant,36.5404426,4.6123876,Béjaïa,Coastal
Pizzeria Les Berbères,Restaurant,36.5128096,4.5866961,Béjaïa,Coastal
Musée de l'Eau,Museum,36.7520302,4.8961973,Béjaïa,Coastal
Resto,Restaurant,36.6943459,4.6714722,Béjaïa,Coastal
Restaurant Tartak,Restaurant,36.6923909,4.6739318,Béjaïa,Coastal
Statue Mira Abderrahmane,Tourist Attraction,36.3857528,4.4011053,Béjaïa,Coastal
Statue Azouaou Amrane,Tourist Attraction,36.3830755,4.4023489,Béjaïa,Coastal
Hôtel Rabah Syphax,Hotel,36.3799383,4.3964163,Béjaïa,Coastal
Bibliothèque,Library,36.3890024,4.395248,Béjaïa,Coastal
Resto,Restaurant,36.387918,4.3991062,Béjaïa,Coastal
Oujeddi,Restaurant,36.3863228,4.4000671,Béjaïa,Coastal
Restaurant Le Cosmos,Restaurant,36.6130916,4.6929941,Béjaïa,Coastal
Le train bleu,Restaurant,36.4815669,4.5572197,Béjaïa,Coastal
Citernes Romaines,Tourist Attraction,36.7570052,5.0834379,Béjaïa,Coastal
Auberge Le Thaïs,Hotel,36.8658979,4.8564201,Béjaïa,Coastal
Yemma Yamna,Mountain,36.7722098,5.0740687,Béjaïa,Coastal
Hôtel Tabet,Hotel,36.7124832,5.0526519,Béjaïa,Coastal
Ach Elbaz,Hotel,36.8135516,4.9691865,Béjaïa,Coastal
Mraissane,Mountain,36.1547491,4.7703249,Béjaïa,Coastal
Bibliothèque 500,Library,36.2015726,5.4236143,Béjaïa,Coastal
Hôtel de Sétif,Hotel,36.1894505,5.4191515,Béjaïa,Coastal
Chapati,Restaurant,36.1940912,5.4368969,Béjaïa,Coastal
Pizzeria Los Tacos,Restaurant,36.192413,5.424367,Béjaïa,Coastal
Porte Fouka,Tourist Attraction,36.7549671,5.0812591,Béjaïa,Coastal
Resto,Restaurant,36.5368289,4.3449833,Béjaïa,Coastal
billiard,Tourist Attraction,36.196364,5.3927348,Béjaïa,Coastal
Bouaroua,Shopping Mall,36.1921101,5.4246683,Béjaïa,Coastal
Sidi Said,Tourist Attraction,36.6069076,4.820703,Béjaïa,Coastal
Draâ Hark El Bqer,Mountain,36.6191313,5.5473836,Béjaïa,Coastal
Le Dauphin Bar Restaurant,Restaurant,36.5831757,4.6588727,Béjaïa,Coastal
Mimosa,Hotel,36.5256878,4.599819,Béjaïa,Coastal
Le Majestic,Hotel,36.4763527,4.5568671,Béjaïa,Coastal
Taxxamt Ouaenour,Tourist Attraction,36.3767992,4.5093394,Béjaïa,Coastal
Resto,Restaurant,36.581399,4.6556254,Béjaïa,Coastal
Camping Bleu Marine,Campground,36.8123465,4.9846089,Béjaïa,Coastal
Mio-Mondo,Restaurant,36.7451619,5.0588658,Béjaïa,Coastal
Resto,Restaurant,36.7536163,5.0912251,Béjaïa,Coastal
Le Self,Restaurant,36.752338,5.0626222,Béjaïa,Coastal
Adjlia,Restaurant,36.7519098,5.0558453,Béjaïa,Coastal
Resto,Restaurant,36.7508251,5.0556712,Béjaïa,Coastal
Le Palmier,Restaurant,36.7532795,5.0863431,Béjaïa,Coastal
Resto,Restaurant,36.7496194,5.043348,Béjaïa,Coastal
Resto,Restaurant,36.7509675,5.0441788,Béjaïa,Coastal
Hôtel de l'Étoile,Hotel,36.7523085,5.0852305,Béjaïa,Coastal
Guerrouahene Omar,Tourist Attraction,36.4402323,4.530179,Béjaïa,Coastal
Cap Carbon,Mountain,36.7761174,5.1024599,Béjaïa,Coastal
Cap Sigli Iguedlane,Hotel,36.8825728,4.7358907,Béjaïa,Coastal
Azeffoun Beach,Hotel,36.8921867,4.4119894,Béjaïa,Coastal
Timri Lleḥsen,Beach,36.8704387,4.8227314,Béjaïa,Coastal
Azaghar,Beach,36.8824589,4.6093757,Béjaïa,Coastal
Huilerie berbère,Tourist Attraction,36.3911573,4.3973835,Béjaïa,Coastal
Ancien Borj siège de la Jemâa,Archaeological Site,36.2987906,4.5836463,Béjaïa,Coastal
La Vigie,Archaeological Site,36.2986346,4.5773158,Béjaïa,Coastal
Nadi Thoubat,Archaeological Site,36.2969363,4.5859393,Béjaïa,Coastal
Tunnel de l'armurerie,Archaeological Site,36.2967659,4.5858056,Béjaïa,Coastal
Ancienne casbah rasée,Archaeological Site,36.29574,4.5822124,Béjaïa,Coastal
Atrouz,Tourist Attraction,36.5222177,5.8653503,Béjaïa,Coastal
Cap Cavallo,Mountain,36.7787515,5.5949844,Béjaïa,Coastal
Ighil Hammam,Mountain,36.5542393,5.4828433,Béjaïa,Coastal
Tamtarte,Mountain,36.522435,5.5191068,Béjaïa,Coastal
Tennert,Mountain,36.5099095,5.5424424,Béjaïa,Coastal
Aghel Aman,Mountain,36.6379223,5.3809606,Béjaïa,Coastal
Outta E-Nsara,Mountain,36.5997584,5.5847359,Béjaïa,Coastal
Draâ Taguelamts,Mountain,36.5923157,5.5867594,Béjaïa,Coastal
Bou Dekkak,Mountain,36.5921038,5.6072292,Béjaïa,Coastal
Bou Chekrid,Mountain,36.5777408,5.6006787,Béjaïa,Coastal
Ras Kef Lekhal,Mountain,36.5676568,5.6039218,Béjaïa,Coastal
Ras Ammoula,Mountain,36.5757055,5.5867645,Béjaïa,Coastal
Fedj Teffah,Mountain,36.633893,5.6573339,Béjaïa,Coastal
Chréa,Mountain,36.6300603,5.6506558,Béjaïa,Coastal
Kef Tasfaït,Mountain,36.4060934,4.8558517,Béjaïa,Coastal
Taourirte n Chorfa,Mountain,36.4067862,4.8610336,Béjaïa,Coastal
Ighil Ouabdellah,Mountain,36.3941453,4.8689912,Béjaïa,Coastal
Irzi n Chaabane,Mountain,36.3657198,4.8547253,Béjaïa,Coastal
Ighil Achemlel,Mountain,36.3717931,4.8516923,Béjaïa,Coastal
Ighil Tagedjdit,Mountain,36.3650614,4.933451,Béjaïa,Coastal
Ighil Bou Iferaouen,Mountain,36.3782542,4.9198251,Béjaïa,Coastal
Taourirt El Khemis,Mountain,36.3866037,4.8639607,Béjaïa,Coastal
El Medjles,Mountain,36.5647547,5.7972901,Béjaïa,Coastal
Kef Zaouïa,Mountain,36.56011,5.7113262,Béjaïa,Coastal
Pizza Pino,Restaurant,36.1886914,5.4322832,Béjaïa,Coastal
Pizza Pino,Restaurant,36.188601,5.4320974,Béjaïa,Coastal
Ighil Ouzemmour,Mountain,36.3804512,4.8135469,Béjaïa,Coastal
Ighil Boumayou,Mountain,36.3842316,4.7964443,Béjaïa,Coastal
Ighil Tagmiouine,Mountain,36.3819853,4.7833999,Béjaïa,Coastal
Ighil Bouaïssi,Mountain,36.3417919,4.767746,Béjaïa,Coastal
Ighil Ait Halla,Mountain,36.3422586,4.7506228,Béjaïa,Coastal
Azrou Aïcha,Mountain,36.460349,4.6094541,Béjaïa,Coastal
Azrou n Tigharmine,Mountain,36.4618625,4.6416718,Béjaïa,Coastal
Ighil Oucherrab,Mountain,36.4907086,4.6686726,Béjaïa,Coastal
Adrar n Aït Qaqouch,Mountain,36.5955329,5.4500881,Béjaïa,Coastal
Koudiet Triq Oudrar,Mountain,36.3918634,4.9454837,Béjaïa,Coastal
Adrar n Ith Moussa,Mountain,36.4221008,4.9329728,Béjaïa,Coastal
Adrar El Djir,Mountain,36.4545971,4.9303996,Béjaïa,Coastal
Ighil Arqab,Mountain,36.3978028,4.9839612,Béjaïa,Coastal
Koudiet Tikasrine,Mountain,36.4013948,4.9683725,Béjaïa,Coastal
Draâ Adrar,Mountain,36.4542292,4.9913357,Béjaïa,Coastal
Draâ El Grib,Mountain,36.4643263,4.9964666,Béjaïa,Coastal
Agouf,Mountain,36.4419407,4.8962336,Béjaïa,Coastal
Ras Agouf,Mountain,36.4372951,4.8824844,Béjaïa,Coastal
Kef Belaiden,Mountain,36.8014866,5.6888284,Béjaïa,Coastal
Sttara,Mountain,36.7944384,5.6890588,Béjaïa,Coastal
Tidiouane,Mountain,36.7306278,5.6781032,Béjaïa,Coastal
Hôtel les 2 rochers,Hotel,36.6645038,5.1700174,Béjaïa,Coastal
Kef Asefsaf,Mountain,36.623725,5.4448189,Béjaïa,Coastal
Kef Bouzen,Mountain,36.6237857,5.4615016,Béjaïa,Coastal
Aghil n Bichou,Mountain,36.6262128,5.4281104,Béjaïa,Coastal
Adrar Mouley Ali,Mountain,36.5918654,5.3923068,Béjaïa,Coastal
Akerkour n Zerri,Mountain,36.5969516,5.3989536,Béjaïa,Coastal
Akerkour,Mountain,36.6030361,5.4204251,Béjaïa,Coastal
Aguemmoun Sekrin,Mountain,36.6059103,5.4084925,Béjaïa,Coastal
Adrar Tandet,Mountain,36.5462723,5.3560843,Béjaïa,Coastal
Ighil Akorn,Mountain,36.5181454,5.2865352,Béjaïa,Coastal
Ighil Rrihan,Mountain,36.5685555,5.3564493,Béjaïa,Coastal
Adrar Tizi Kedelt,Mountain,36.5801734,5.3650878,Béjaïa,Coastal
Dar Sultan,Hotel,36.1843164,5.4132517,Béjaïa,Coastal
Vallée du O. Dar el Oued,Valley,36.6372696,5.5944668,Béjaïa,Coastal
M'Saâda,Mountain,36.6347436,5.3558433,Béjaïa,Coastal
Ighil Tazaârourt,Mountain,36.5737992,5.4590479,Béjaïa,Coastal
El Houita,Mountain,36.7108134,5.5426934,Béjaïa,Coastal
Esnoubra,Mountain,36.6895702,5.6644301,Béjaïa,Coastal
El Qern,Mountain,36.698804,5.6573218,Béjaïa,Coastal
Dj. bou Affene,Mountain,36.4198172,5.6553126,Béjaïa,Coastal
Djebel Merzeguene,Mountain,36.4392121,5.6587079,Béjaïa,Coastal
Djebel Timedlasse,Mountain,36.4559941,5.5439909,Béjaïa,Coastal
Ouar Tadjenant,Mountain,36.5109206,5.592017,Béjaïa,Coastal
Djebel Tidaisse,Mountain,36.4713324,5.6417634,Béjaïa,Coastal
Draâ Bouâmira,Mountain,36.5925251,5.5285817,Béjaïa,Coastal
Draâ Esnoubrat,Mountain,36.5943096,5.5351363,Béjaïa,Coastal
Kaf Zrari,Mountain,36.5617016,5.5509612,Béjaïa,Coastal
Sttara,Mountain,36.5572257,5.55147,Béjaïa,Coastal
Draâ Lakbar,Mountain,36.5550886,5.5268727,Béjaïa,Coastal
Sekkouk,Mountain,36.5553418,5.5162019,Béjaïa,Coastal
M'lahba,Mountain,36.5619634,5.5142494,Béjaïa,Coastal
Tachencourt,Mountain,36.5615498,5.5083271,Béjaïa,Coastal
Ighil Oughlad,Mountain,36.5649029,5.4942312,Béjaïa,Coastal
Draâ el Kherrouba,Mountain,36.5924473,5.5127619,Béjaïa,Coastal
Adrar Boudouas,Mountain,36.6306677,5.4695972,Béjaïa,Coastal
Resto,Restaurant,36.7855043,5.656101,Béjaïa,Coastal
Ighil n Teghfart,Mountain,36.608149,5.4917384,Béjaïa,Coastal
Akerrouy n Tabarjet,Mountain,36.3624811,4.7723037,Béjaïa,Coastal
Ighil Touchaït,Mountain,36.3658786,4.7618036,Béjaïa,Coastal
Ighil Taherramt Ouferttas,Mountain,36.3618876,4.7560312,Béjaïa,Coastal
Ighil Ihemmaren,Mountain,36.3729206,4.7200944,Béjaïa,Coastal
Adrar Tassamert,Mountain,36.3458248,4.719121,Béjaïa,Coastal
Adrar Tahmants,Mountain,36.3545749,4.7181187,Béjaïa,Coastal
Adrar Tala n el Djâafra,Mountain,36.349997,4.6722666,Béjaïa,Coastal
Adrar Oumaâza,Mountain,36.3853338,4.6997325,Béjaïa,Coastal
Ighil Irzi,Mountain,36.3853344,4.7227152,Béjaïa,Coastal
Adrar n Tigourarine,Mountain,36.3863314,4.6678599,Béjaïa,Coastal
Resto,Restaurant,36.183988,5.3065575,Béjaïa,Coastal
Resto,Restaurant,36.1841581,5.3071818,Béjaïa,Coastal
Bibliothèque de la commune,Library,36.187003,5.314946,Béjaïa,Coastal
El Qern,Mountain,36.7006398,5.5315809,Béjaïa,Coastal
Ghanimen,Mountain,36.7279617,5.6900068,Béjaïa,Coastal
Pointe Tameqrante,Mountain,36.6638819,5.435189,Béjaïa,Coastal
Imma Tadrart,Mountain,36.6409239,5.2321914,Béjaïa,Coastal
Agouf,Mountain,36.603678,5.36076,Béjaïa,Coastal
Ighil Megouche,Mountain,36.5973832,5.3276983,Béjaïa,Coastal
karim,Hotel,36.522403,5.8637093,Béjaïa,Coastal
Kaf Boukrina,Mountain,36.6009302,5.6725138,Béjaïa,Coastal
Draâ Aheddaden,Mountain,36.6207153,5.6604094,Béjaïa,Coastal
Draâ Tissemlal,Mountain,36.6193885,5.6497849,Béjaïa,Coastal
Banc des Kabyles,Rock Formation,36.8469426,5.6638613,Béjaïa,Coastal
Resto,Restaurant,36.6142542,4.6586374,Béjaïa,Coastal
Restaurant Souagui Safir et Hamid Ould Hammiche,Restaurant,36.3603391,4.3227936,Béjaïa,Coastal
café-Restaurant LOUCHANI,Restaurant,36.3698968,4.3677091,Béjaïa,Coastal
Restauration et crémerie AAZZOUG,Restaurant,36.360563,4.3290871,Béjaïa,Coastal
El Ouatia,Mountain,36.7639406,5.6672841,Béjaïa,Coastal
Ighil Bouabada,Mountain,36.5782395,5.4754087,Béjaïa,Coastal
Ighil Yachah,Mountain,36.5702013,5.4805843,Béjaïa,Coastal
Resto,Restaurant,36.7471372,5.0577033,Béjaïa,Coastal
Bettacha,Mountain,36.6328767,5.5084005,Béjaïa,Coastal
Resto,Restaurant,36.2288323,5.3966789,Béjaïa,Coastal
Resto,Restaurant,36.2286707,5.3966519,Béjaïa,Coastal
Kef Salima,Mountain,36.3766759,4.9399906,Béjaïa,Coastal
Azrou Tourchout,Mountain,36.4578373,4.7951921,Béjaïa,Coastal
el yasmine,Tourist Attraction,36.1482686,5.453056,Béjaïa,Coastal
Ras et Touk,Mountain,36.4466394,5.3066996,Béjaïa,Coastal
Djebel Maalaoua,Mountain,36.4018248,5.2949354,Béjaïa,Coastal
Djebel Ras Taguemounte,Mountain,36.3959785,5.2657315,Béjaïa,Coastal
Ras Bou Chama,Mountain,36.396488,5.3179005,Béjaïa,Coastal
Ras Bou Tatza,Mountain,36.3814168,5.2897051,Béjaïa,Coastal
Djebel Bouzeghour,Mountain,36.4656822,5.4832976,Béjaïa,Coastal
Djebel Brâkou,Mountain,36.4668902,5.4953568,Béjaïa,Coastal
Djebel Khalboust,Mountain,36.4394737,5.4450171,Béjaïa,Coastal
Djebel Lahmam,Mountain,36.3833335,5.4874282,Béjaïa,Coastal
Djebel Srafda,Mountain,36.3873757,5.4696183,Béjaïa,Coastal
Djebel Tafoughalt,Mountain,36.486025,5.4948632,Béjaïa,Coastal
Djebel Taghramt,Mountain,36.4578301,5.4822676,Béjaïa,Coastal
Djebel Tamedrart,Mountain,36.4626968,5.4693286,Béjaïa,Coastal
Djebel ben Mer,Mountain,36.4517895,5.4978566,Béjaïa,Coastal
Djebel el Guenater,Mountain,36.380604,5.4562502,Béjaïa,Coastal
Djebel el Kerkar,Mountain,36.3805695,5.4423671,Béjaïa,Coastal
Djebel el Nator,Mountain,36.4839202,5.4863875,Béjaïa,Coastal
Djebe Zibane,Mountain,36.352192,5.3952956,Béjaïa,Coastal
Djebel Ayad,Mountain,36.3514792,5.4804155,Béjaïa,Coastal
Djebel Tefrend,Mountain,36.3602233,5.4573512,Béjaïa,Coastal
Djebel Zkarma,Mountain,36.3605516,5.4814241,Béjaïa,Coastal
Tagues,Mountain,36.7081741,5.5488259,Béjaïa,Coastal
Taskella,Mountain,36.6211829,5.5608465,Béjaïa,Coastal
Takendous,Mountain,36.6191514,5.6022763,Béjaïa,Coastal
El Maïda,Mountain,36.6117371,5.6519593,Béjaïa,Coastal
Tachgouft,Mountain,36.5087808,5.463129,Béjaïa,Coastal
Taourirt el Kouri,Mountain,36.4996561,5.4558426,Béjaïa,Coastal
Ighil Ourebtat,Mountain,36.4957074,4.7557782,Béjaïa,Coastal
Azrou Ouchtoug,Mountain,36.5022276,4.7382688,Béjaïa,Coastal
Ighil Miala,Mountain,36.5030037,4.7577523,Béjaïa,Coastal
Adrar Trouna,Mountain,36.5068547,4.7392657,Béjaïa,Coastal
Ighil n Thitount,Mountain,36.5155275,4.8071524,Béjaïa,Coastal
Ighil n Tafziouine,Mountain,36.4838826,4.7828998,Béjaïa,Coastal
Ighil Ijdaren,Mountain,36.4939104,4.8094391,Béjaïa,Coastal
Ighil n Tala Tinzar,Mountain,36.4989795,4.8403236,Béjaïa,Coastal
Kef Ferdina,Mountain,36.4210495,4.8577454,Béjaïa,Coastal
Ighil Oumellil,Mountain,36.4099905,4.8016089,Béjaïa,Coastal
Ighil Tighermine,Mountain,36.2821592,4.5866304,Béjaïa,Coastal
Ich Ilougane,Mountain,36.2556051,4.5927623,Béjaïa,Coastal
Adrar Tezibart,Mountain,36.2560723,4.5758108,Béjaïa,Coastal
Koudiet el Ksar,Mountain,36.229339,4.5298841,Béjaïa,Coastal
Koudiat Azrou,Mountain,36.2307237,4.5149496,Béjaïa,Coastal
Adrar Tefreg,Mountain,36.3299203,4.7083533,Béjaïa,Coastal
Ighil Sidi el Djoudi,Mountain,36.3039949,4.8153246,Béjaïa,Coastal
Draâ Dmina,Mountain,36.584999,5.5138636,Béjaïa,Coastal
Ras Drida,Mountain,36.5757903,5.515159,Béjaïa,Coastal
Draâ Zeboucha,Mountain,36.5762875,5.5305323,Béjaïa,Coastal
Barssout,Mountain,36.5744609,5.5252108,Béjaïa,Coastal
Ras Amellat,Mountain,36.5406441,5.4758654,Béjaïa,Coastal
Akerkour n Tourt,Mountain,36.5446792,5.3907054,Béjaïa,Coastal
Adrar el Melaz,Mountain,36.5570886,5.3921975,Béjaïa,Coastal
Taourirt Reis,Mountain,36.5078439,5.3016765,Béjaïa,Coastal
Ighil Ouguenkour,Mountain,36.5104266,5.287737,Béjaïa,Coastal
Djebel Eggatra,Mountain,36.2303951,5.6739924,Béjaïa,Coastal
Koudiet Dar Gassa,Mountain,36.3807073,4.9550206,Béjaïa,Coastal
Koudiet Kssir ben el Arbi,Mountain,36.3792017,4.9592975,Béjaïa,Coastal
Koudiet Irzou n Amara Ouchan,Mountain,36.4251958,5.0193764,Béjaïa,Coastal
Kef Bouchekrida,Mountain,36.6322821,5.5214962,Béjaïa,Coastal
SARL IGBS,Campground,36.1188287,5.360667,Béjaïa,Coastal
Bou Diab,Mountain,36.5954902,5.5900545,Béjaïa,Coastal
Zoundaï,Mountain,36.5928111,5.595008,Béjaïa,Coastal
Draâ Melaka,Mountain,36.5869767,5.5974924,Béjaïa,Coastal
Agarou,Tourist Attraction,36.5198917,5.8539837,Béjaïa,Coastal
Resto,Restaurant,36.0763844,4.7694899,Béjaïa,Coastal
Resto,Restaurant,36.0781634,4.7496708,Béjaïa,Coastal
Resto,Restaurant,36.0765496,4.7694473,Béjaïa,Coastal
Maison De Jeunes Fatima Ramtani,Hotel,36.7585497,5.0771038,Béjaïa,Coastal
إقامة جامعية قرارية سليمان,Hotel,36.2170299,5.4464161,Béjaïa,Coastal
Resto,Restaurant,36.569696,4.3893107,Béjaïa,Coastal
البيت المجهول,Archaeological Site,36.6959154,4.6586109,Béjaïa,Coastal
Hôtel El Gourbi,Hotel,36.1276451,5.0838756,Béjaïa,Coastal
Resto,Restaurant,36.0811378,4.7775435,Béjaïa,Coastal
مكتبة البلدية,Library,36.2718511,5.1273164,Béjaïa,Coastal
Agouni Temlilin (Moudjahidin),Tourist Attraction,36.8358457,4.2523877,Béjaïa,Coastal
locaux commerciaux El Had,Shopping Mall,36.6160478,4.7746776,Béjaïa,Coastal
Monument des Martyrs,Tourist Attraction,36.7947642,4.3090078,Béjaïa,Coastal
Zarouatti,Library,36.1905024,5.4162641,Béjaïa,Coastal
Hôtel El Mountazah,Hotel,36.1889375,5.4064818,Béjaïa,Coastal
Résidence Universitaire De Targa Ouzemmour,Hotel,36.7530626,5.039972,Béjaïa,Coastal
الدوادي,Restaurant,36.285275,5.41236,Béjaïa,Coastal
King pro,Hotel,36.0903905,4.7425365,Béjaïa,Coastal
My kiki,Restaurant,36.5710613,4.3120402,Béjaïa,Coastal
نصب اولاد سوسي,Tourist Attraction,36.7612328,5.9007621,Béjaïa,Coastal
Résidence L'Oliverie,Hotel,36.6243014,5.316108,Béjaïa,Coastal
Centre de Repos Familiale Militaire,Campground,36.6389111,5.3203337,Béjaïa,Coastal
Hôtel SAFSAF,Hotel,36.6145727,5.3351973,Béjaïa,Coastal
Café restaurant,Restaurant,36.6079076,5.3380847,Béjaïa,Coastal
Monument,Tourist Attraction,36.5777838,5.3438648,Béjaïa,Coastal
Bibliothèque communale,Library,36.6306116,5.3293731,Béjaïa,Coastal
Resto,Restaurant,36.7066006,4.1712658,Béjaïa,Coastal
Maison de jeunes,Tourist Attraction,36.5862666,5.4414228,Béjaïa,Coastal
Resto,Restaurant,36.0803489,4.74733,Béjaïa,Coastal
Resto,Restaurant,36.4207378,4.3414326,Béjaïa,Coastal
Résultant,Restaurant,36.4203932,4.341039,Béjaïa,Coastal
Monument des 7 martyrs,Tourist Attraction,36.6364682,5.2812365,Béjaïa,Coastal
Resto,Restaurant,36.5477224,5.2773636,Béjaïa,Coastal
La comtesse,Tourist Attraction,36.6449015,5.2091517,Béjaïa,Coastal
Z imazighen,Tourist Attraction,36.6345367,4.2059118,Béjaïa,Coastal
Resto,Restaurant,36.6359571,4.2056002,Béjaïa,Coastal
Abbane Remdan,Tourist Attraction,36.6367712,4.2040546,Béjaïa,Coastal
L'Horizon Bleu,Hotel,36.8579392,4.8668384,Béjaïa,Coastal
Resto,Restaurant,36.075677,4.7685633,Béjaïa,Coastal
الخيمة-مونية,Restaurant,36.0773301,4.7715632,Béjaïa,Coastal
Tiklat,Archaeological Site,36.6557824,4.8384377,Béjaïa,Coastal
Hotel Azdif,Hotel,36.1902621,5.4048874,Béjaïa,Coastal
صخرة بودوز,Campground,36.7612646,4.4890064,Béjaïa,Coastal
Msid Chta,Mountain,36.6346788,5.6986606,Béjaïa,Coastal
Draâ el Khlendja,Mountain,36.6498251,5.6339521,Béjaïa,Coastal
el Hamra,Mountain,36.6534912,5.6458233,Béjaïa,Coastal
Draâ el Meraked,Mountain,36.6588927,5.6311545,Béjaïa,Coastal
Draâ Chouafa,Mountain,36.6693831,5.692935,Béjaïa,Coastal
Dar Benayache,Mountain,36.728731,5.5634353,Béjaïa,Coastal
El Djouza,Mountain,36.7284359,5.5669346,Béjaïa,Coastal
Draâ Boussoufa,Mountain,36.7521931,5.5940582,Béjaïa,Coastal
Ras el Merba,Mountain,36.553903,5.6081354,Béjaïa,Coastal
Ras el Anaçer,Mountain,36.5570856,5.6154271,Béjaïa,Coastal
Chnigra,Mountain,36.5255032,5.655504,Béjaïa,Coastal
Koudiet Sidi Saïd,Mountain,36.3544165,4.9404986,Béjaïa,Coastal
Koudiet Chouaf,Mountain,36.3558283,4.9640214,Béjaïa,Coastal
Tourbanet Draâ el Djemel,Mountain,36.3575474,4.974418,Béjaïa,Coastal
Tighilt Tikhesaline,Mountain,36.3607064,4.8925636,Béjaïa,Coastal
Taourirt Ouahar,Mountain,36.3381818,4.841152,Béjaïa,Coastal
Ighil Ighoudan,Mountain,36.3529371,4.8388744,Béjaïa,Coastal
Ighil Ougoulmine,Mountain,36.3743961,4.8947873,Béjaïa,Coastal
Koudiet M'serth,Mountain,36.3658609,4.8993577,Béjaïa,Coastal
Koudiet Lemafa,Mountain,36.3641848,4.9037136,Béjaïa,Coastal
Koudiet el Djirf,Mountain,36.3443113,4.901525,Béjaïa,Coastal
Ighil n Rabah,Mountain,36.3363605,4.8970189,Béjaïa,Coastal
Koudiet Anza Saïd,Mountain,36.3292386,4.887556,Béjaïa,Coastal
Ighil Idelkten,Mountain,36.3373112,4.8766555,Béjaïa,Coastal
Draâ Nadour,Mountain,36.611429,5.6331302,Béjaïa,Coastal
Koudiet el Adjoul,Mountain,36.5864062,5.5869962,Béjaïa,Coastal
Draâ Brihmat,Mountain,36.5945209,5.5830051,Béjaïa,Coastal
Medlouq,Mountain,36.6055419,5.5903814,Béjaïa,Coastal
Dj. Braham,Mountain,36.6012752,5.5720137,Béjaïa,Coastal
Koudiet Azaroud,Mountain,36.4900977,4.9901954,Béjaïa,Coastal
Koudiet Tatroucht,Mountain,36.4934271,4.9931995,Béjaïa,Coastal
Koudiet Ismin,Mountain,36.4987401,4.9988214,Béjaïa,Coastal
Taourirt Yahia Ouchalal,Mountain,36.4868097,5.0090915,Béjaïa,Coastal
Kef el Mouadjen,Mountain,36.3104513,4.9217572,Béjaïa,Coastal
Kef Ayad,Mountain,36.3052638,4.9437513,Béjaïa,Coastal
Djebel Sersara,Mountain,36.3146412,4.9649327,Béjaïa,Coastal
Kaf Boutaga,Mountain,36.32377,4.9905039,Béjaïa,Coastal
Kaf Amelal,Mountain,36.3206235,4.981363,Béjaïa,Coastal
Kaf Lahdjer Lekhal,Mountain,36.3169237,4.9720289,Béjaïa,Coastal
Kaf el Guelala,Mountain,36.3178073,5.0177625,Béjaïa,Coastal
Hotel le golfe Tichy plage,Hotel,36.6672704,5.1663585,Béjaïa,Coastal
عين الفوارة,Tourist Attraction,36.1893325,5.4048867,Béjaïa,Coastal
Cap aokas,Hotel,36.6400304,5.2384909,Béjaïa,Coastal
الشكيرد,Tourist Attraction,36.6947499,5.9089979,Béjaïa,Coastal
مقام الشهيد,Tourist Attraction,36.6798283,5.7868221,Béjaïa,Coastal
Monument des martyrs d'Ighil Bousouel,Tourist Attraction,36.8655177,4.2310489,Béjaïa,Coastal
Résidence le phare 2,Hotel,36.6879224,4.8552445,Béjaïa,Coastal
Imedjrouradh,Tourist Attraction,36.7404196,4.3680911,Béjaïa,Coastal
Resto,Restaurant,36.0790567,4.7746983,Béjaïa,Coastal
Resto,Restaurant,36.7445509,5.0565849,Béjaïa,Coastal
عاشور,Hotel,36.2038716,5.4326634,Béjaïa,Coastal
Café restaurant,Restaurant,36.4828213,4.5592628,Béjaïa,Coastal
Cafétéria et restaurant,Restaurant,36.6756219,5.4793093,Béjaïa,Coastal
Restaurant VX,Restaurant,36.7526416,5.0817715,Béjaïa,Coastal
le rocher du chat,Rock Formation,36.6668343,4.9270062,Béjaïa,Coastal
فندق المراد,Hotel,36.7768932,5.8957426,Béjaïa,Coastal
Djerba 2,Tourist Attraction,36.8160132,4.976998,Béjaïa,Coastal
Boulimat archipel,Tourist Attraction,36.8255028,4.9976884,Béjaïa,Coastal
multi acitivités commerciales ouzaiche,Shopping Mall,36.6454951,4.9057943,Béjaïa,Coastal
مكتبة الماين,Library,36.3694189,4.7337998,Béjaïa,Coastal
مطعم عبد المالك مقراني,Restaurant,36.3696642,4.7342858,Béjaïa,Coastal
Tamalaht,Beach,36.7733325,5.0961105,Béjaïa,Coastal
Hôtel de la plage,Hotel,36.8189614,5.7083151,Béjaïa,Coastal
Awrir,Mountain,36.6647026,4.9395062,Béjaïa,Coastal
نزل + مجمع خدمات,Hotel,36.2836564,5.6092926,Béjaïa,Coastal
Resto,Restaurant,36.7538882,5.0912911,Béjaïa,Coastal
Adhrar el Bled,Mountain,36.5938206,5.3639502,Béjaïa,Coastal
Adrar Oumjot,Mountain,36.5855017,5.3637244,Béjaïa,Coastal
Adrar Boukouna,Mountain,36.5838288,5.3722854,Béjaïa,Coastal
Akerkour Bouzoutat,Mountain,36.5803414,5.3951195,Béjaïa,Coastal
Ighil Izoran,Mountain,36.5525022,5.4693967,Béjaïa,Coastal
خيمة شخشوخة,Restaurant,36.0765223,4.771575,Béjaïa,Coastal
Kali malik,Restaurant,36.8926424,4.4132501,Béjaïa,Coastal
Ighil Takherat,Mountain,36.398863,4.7560375,Béjaïa,Coastal
Adrar Sidi el Amri,Mountain,36.4019972,4.7211624,Béjaïa,Coastal
Adrar Tazrout,Mountain,36.3967492,4.7040357,Béjaïa,Coastal
Ighil Ouzaârour,Mountain,36.3933466,4.6908493,Béjaïa,Coastal
Adrar n Taïd,Mountain,36.3831812,4.6770261,Béjaïa,Coastal
Adrar Sidi Yahia,Mountain,36.4139884,4.5775506,Béjaïa,Coastal
Tighilt n Aït Amar,Mountain,36.4079728,4.5827803,Béjaïa,Coastal
Tighilt Rabdah,Mountain,36.4083497,4.5777767,Béjaïa,Coastal
Ighil Guejdaren,Mountain,36.4012757,4.5775749,Béjaïa,Coastal
Isoulel,Mountain,36.3738051,4.5996945,Béjaïa,Coastal
Ighil Oudhrar,Mountain,36.5764287,5.3221706,Béjaïa,Coastal
Tabouqalt,Mountain,36.5843105,5.3085525,Béjaïa,Coastal
Sidi Djaber,Mountain,36.5879287,5.2964825,Béjaïa,Coastal
Ablat Amellal,Mountain,36.5904815,5.2699691,Béjaïa,Coastal
Adhrar Mesbah,Mountain,36.590641,5.2779942,Béjaïa,Coastal
إقامة شوف نور الدين,Hotel,36.666245,5.1644118,Béjaïa,Coastal
اقامة هودة,Hotel,36.8180702,5.7477857,Béjaïa,Coastal
Resto,Restaurant,36.3370951,5.1757955,Béjaïa,Coastal
Koudiet Ghar Bougas,Mountain,36.3981127,4.9644044,Béjaïa,Coastal
Koudiet Firou,Mountain,36.3869404,4.9437808,Béjaïa,Coastal
Djbel Beni Siar,Mountain,36.7296272,5.8954278,Béjaïa,Coastal
Bouchorfa,Mountain,36.4114299,5.0436759,Béjaïa,Coastal
Draâ el Metmour,Mountain,36.4040572,5.0583059,Béjaïa,Coastal
Koudiet Tirouilt,Mountain,36.4010789,5.0709125,Béjaïa,Coastal
Teniet Salah,Mountain,36.3605319,4.9968851,Béjaïa,Coastal
Koudiet el Beïda,Mountain,36.3572446,5.0137455,Béjaïa,Coastal
Ras Ben Guenna,Mountain,36.3346249,4.9421549,Béjaïa,Coastal
Koudiet Rouissa,Mountain,36.3322144,4.939244,Béjaïa,Coastal
Ras el Kifane,Mountain,36.3116843,5.0368151,Béjaïa,Coastal
Kef el Ataïl,Mountain,36.3073593,5.0381306,Béjaïa,Coastal
حمدوني,Library,36.5254128,5.8900908,Béjaïa,Coastal
Aire de repos,Park,36.807868,5.842032,Béjaïa,Coastal
Salvador,Restaurant,36.7413319,5.045343,Béjaïa,Coastal
مركز الراحة لعمال التربية,Hotel,36.8219721,5.723651,Béjaïa,Coastal
مطعم وملحمة بورخيس,Restaurant,36.2839265,5.4131108,Béjaïa,Coastal
Base,Tourist Attraction,36.5533927,4.2807392,Béjaïa,Coastal
Boukhartoum,Mountain,36.7936449,5.8233782,Béjaïa,Coastal
Hôtel Palace,Hotel,36.8994101,4.270386,Béjaïa,Coastal
1122,Mountain,36.3741349,5.7052337,Béjaïa,Coastal
Résidence Yasmine,Hotel,36.7861573,5.6573172,Béjaïa,Coastal
Plage Ait Mendil,Beach,36.8807649,4.7098117,Béjaïa,Coastal
Cantine Danone Djurdjura Algérie,Restaurant,36.4820376,4.5619439,Béjaïa,Coastal
Hotel Raya,Hotel,36.668249,5.1573206,Béjaïa,Coastal
Hotel Club Alloui,Hotel,36.671504,5.1531605,Béjaïa,Coastal
Restaurant Cristal,Restaurant,36.6706929,5.1521587,Béjaïa,Coastal
La cigale,Restaurant,36.671134,5.1511207,Béjaïa,Coastal
La cicilienne,Restaurant,36.6710178,5.1514211,Béjaïa,Coastal
Hotel Golfe Tichy,Hotel,36.6670678,5.1662323,Béjaïa,Coastal
Mersel hotel,Hotel,36.6619386,5.1775525,Béjaïa,Coastal
Lamaadhan tichy centre,Restaurant,36.6642128,5.1712909,Béjaïa,Coastal
Restaurant MINI MAC,Restaurant,36.6646001,5.1698318,Béjaïa,Coastal
Locaux Commerciaux,Shopping Mall,36.6577644,5.1834762,Béjaïa,Coastal
Le Régal,Restaurant,36.6585433,5.1838705,Béjaïa,Coastal
Restaurant La MARINA,Restaurant,36.6561807,5.1917414,Béjaïa,Coastal
Fort Lemercier,Tourist Attraction,36.7663501,5.0682968,Béjaïa,Coastal
Hotel La Roseraie,Hotel,36.6327941,5.2466999,Béjaïa,Coastal
Hôtel Le Syphax,Hotel,36.6707919,5.153414,Béjaïa,Coastal
Hôtel Le Syphax,Hotel,36.6712781,5.1535025,Béjaïa,Coastal
Bibliothèque Commandant Hamaï Mohand Oukaci,Library,36.7594867,5.067845,Béjaïa,Coastal
ميشلي,Hotel,36.5572173,4.2716693,Béjaïa,Coastal
مطعم بيتزا الشيخ عامر,Restaurant,36.8296406,4.9361891,Béjaïa,Coastal
شاطئ العائلة,Beach,36.8301715,4.9367408,Béjaïa,Coastal
بوداود,Hotel,36.5574989,4.2758137,Béjaïa,Coastal
HICHEM,Park,36.4112751,4.8859546,Béjaïa,Coastal
Resraurant Ain Ain Romane,Restaurant,36.1780003,5.4993212,Béjaïa,Coastal
Hotel la route,Hotel,36.1780078,5.4991039,Béjaïa,Coastal
Restaurant de la Soummam,Restaurant,36.580325,4.6535433,Béjaïa,Coastal
طريق غابة البابور,Campground,36.500679,5.5063284,Béjaïa,Coastal
بربوشة,Restaurant,36.8089865,5.7895785,Béjaïa,Coastal
Mds balouch,Library,36.2016959,5.4400193,Béjaïa,Coastal
مكتب,Library,36.205583,5.4319132,Béjaïa,Coastal
Lǧameε n timsilt - Yacine Bettar,Library,36.6012655,4.6336161,Béjaïa,Coastal
El Mers,Forest,36.5933132,5.5399562,Béjaïa,Coastal
El Houmer,Forest,36.5951986,5.5259755,Béjaïa,Coastal
Draâ Rkabi,Mountain,36.6007027,5.5564223,Béjaïa,Coastal
Signiounane,Mountain,36.5863045,5.8343494,Béjaïa,Coastal
El Mecibah,Mountain,36.732418,5.5845089,Béjaïa,Coastal
Refuge,Museum,36.481424,4.2943611,Béjaïa,Coastal
Tafazert,Mountain,36.4893752,4.3028022,Béjaïa,Coastal
Asqajdam,Forest,36.4754903,4.3332365,Béjaïa,Coastal
Tizi i-buwal,Mountain,36.4796743,4.3314234,Béjaïa,Coastal
Tala melulen,Tourist Attraction,36.4963849,4.281433,Béjaïa,Coastal
مهبول,Restaurant,36.1887269,5.4073841,Béjaïa,Coastal
